[
  {
	"coord": {
	  "lat": 52.0,
	  "lon": 20.0
	},
	"country": "PL",
	"id": 798544,
	"name": "Republic of Poland"
  },
  {
	"coord": {
	  "lat": 52.150002,
	  "lon": 19.383329
	},
	"country": "PL",
	"id": 3094325,
	"name": "Kuchary"
  },
  {
	"coord": {
	  "lat": 53.142139,
	  "lon": 17.60181
	},
	"country": "PL",
	"id": 3091150,
	"name": "Naklo nad Notecia"
  },
  {
	"coord": {
	  "lat": 50.771412,
	  "lon": 16.284321
	},
	"country": "PL",
	"id": 3082707,
	"name": "Walbrzych"
  },
  {
	"coord": {
	  "lat": 52.665379,
	  "lon": 19.060829
	},
	"country": "PL",
	"id": 7530966,
	"name": "Włocławek"
  },
  {
	"coord": {
	  "lat": 53.7742,
	  "lon": 15.7973
	},
	"country": "PL",
	"id": 7531696,
	"name": "Świdwin"
  },
  {
	"coord": {
	  "lat": 49.960629,
	  "lon": 18.600531
	},
	"country": "PL",
	"id": 7530961,
	"name": "Jastrzębie-Zdrój"
  },
  {
	"coord": {
	  "lat": 51.3545,
	  "lon": 19.3626
	},
	"country": "PL",
	"id": 7532652,
	"name": "Bełchatów"
  },
  {
	"coord": {
	  "lat": 50.297901,
	  "lon": 18.9102
	},
	"country": "PL",
	"id": 7532438,
	"name": "Świętochłowice"
  },
  {
	"coord": {
	  "lat": 52.83353,
	  "lon": 19.71216
	},
	"country": "PL",
	"id": 7530929,
	"name": "Powiat sierpecki"
  },
  {
	"coord": {
	  "lat": 49.960602,
	  "lon": 18.6005
	},
	"country": "PL",
	"id": 7531863,
	"name": "Jastrzębie-Zdrój"
  },
  {
	"coord": {
	  "lat": 52.42424,
	  "lon": 19.46258
	},
	"country": "PL",
	"id": 7531533,
	"name": "Gostynin"
  },
  {
	"coord": {
	  "lat": 50.389091,
	  "lon": 19.42263
	},
	"country": "PL",
	"id": 3090990,
	"name": "Niegowonice"
  },
  {
	"coord": {
	  "lat": 50.451771,
	  "lon": 19.519871
	},
	"country": "PL",
	"id": 3090285,
	"name": "Ogrodzieniec"
  },
  {
	"coord": {
	  "lat": 50.427689,
	  "lon": 19.39465
	},
	"country": "PL",
	"id": 3093768,
	"name": "Lazy"
  },
  {
	"coord": {
	  "lat": 51.099998,
	  "lon": 17.033331
	},
	"country": "PL",
	"id": 3081368,
	"name": "Wroclaw"
  },
  {
	"coord": {
	  "lat": 51.5,
	  "lon": 19.5
	},
	"country": "PL",
	"id": 3337493,
	"name": "Województwo Łódzkie"
  },
  {
	"coord": {
	  "lat": 50.440182,
	  "lon": 20.937799
	},
	"country": "PL",
	"id": 758116,
	"name": "Stopnica"
  },
  {
	"coord": {
	  "lat": 51.351639,
	  "lon": 20.06139
	},
	"country": "PL",
	"id": 764758,
	"name": "Mikułowice"
  },
  {
	"coord": {
	  "lat": 51.417198,
	  "lon": 21.156099
	},
	"country": "PL",
	"id": 7532212,
	"name": "Radom"
  },
  {
	"coord": {
	  "lat": 51.639462,
	  "lon": 21.4958
	},
	"country": "PL",
	"id": 7530747,
	"name": "Powiat kozienicki"
  },
  {
	"coord": {
	  "lat": 51.986809,
	  "lon": 21.119061
	},
	"country": "PL",
	"id": 759245,
	"name": "Sierzchów"
  },
  {
	"coord": {
	  "lat": 52.23954,
	  "lon": 21.681141
	},
	"country": "PL",
	"id": 7531413,
	"name": "Jakubów"
  },
  {
	"coord": {
	  "lat": 53.5,
	  "lon": 15.5
	},
	"country": "PL",
	"id": 3337499,
	"name": "Województwo Zachodniopomorskie"
  },
  {
	"coord": {
	  "lat": 53.17382,
	  "lon": 22.03982
	},
	"country": "PL",
	"id": 766023,
	"name": "Łomżyca"
  },
  {
	"coord": {
	  "lat": 53.800991,
	  "lon": 17.718821
	},
	"country": "PL",
	"id": 7530931,
	"name": "Powiat chojnicki"
  },
  {
	"coord": {
	  "lat": 53.864368,
	  "lon": 21.305071
	},
	"country": "PL",
	"id": 764312,
	"name": "Mragowo"
  },
  {
	"coord": {
	  "lat": 50.754501,
	  "lon": 17.630301
	},
	"country": "PL",
	"id": 7533313,
	"name": "Lewin Brzeski"
  },
  {
	"coord": {
	  "lat": 52.366669,
	  "lon": 16.883329
	},
	"country": "PL",
	"id": 3084052,
	"name": "Swierczewo"
  },
  {
	"coord": {
	  "lat": 50.481899,
	  "lon": 21.57295
	},
	"country": "PL",
	"id": 759083,
	"name": "Skopanie"
  },
  {
	"coord": {
	  "lat": 53.755001,
	  "lon": 19.205469
	},
	"country": "PL",
	"id": 3088161,
	"name": "Prabuty"
  },
  {
	"coord": {
	  "lat": 50.388821,
	  "lon": 16.611851
	},
	"country": "PL",
	"id": 7530821,
	"name": "Powiat kłodzki"
  },
  {
	"coord": {
	  "lat": 53.018398,
	  "lon": 20.885
	},
	"country": "PL",
	"id": 7532745,
	"name": "Przasnysz"
  },
  {
	"coord": {
	  "lat": 53.416672,
	  "lon": 14.56667
	},
	"country": "PL",
	"id": 3093826,
	"name": "Łasztownia"
  },
  {
	"coord": {
	  "lat": 51.74049,
	  "lon": 18.082081
	},
	"country": "PL",
	"id": 3080902,
	"name": "Zagórzynek"
  },
  {
	"coord": {
	  "lat": 49.98333,
	  "lon": 20.066669
	},
	"country": "PL",
	"id": 766573,
	"name": "Lednica Niemiecka"
  },
  {
	"coord": {
	  "lat": 49.89032,
	  "lon": 19.48374
	},
	"country": "PL",
	"id": 6690165,
	"name": "Powiat wadowicki"
  },
  {
	"coord": {
	  "lat": 53.215801,
	  "lon": 22.150299
	},
	"country": "PL",
	"id": 7531689,
	"name": "Piątnica"
  },
  {
	"coord": {
	  "lat": 50.573639,
	  "lon": 21.681601
	},
	"country": "PL",
	"id": 7532503,
	"name": "Tarnobrzeg"
  },
  {
	"coord": {
	  "lat": 50.038898,
	  "lon": 18.689199
	},
	"country": "PL",
	"id": 7532344,
	"name": "Żory"
  },
  {
	"coord": {
	  "lat": 50.391499,
	  "lon": 18.6007
	},
	"country": "PL",
	"id": 7532893,
	"name": "Pyskowice"
  },
  {
	"coord": {
	  "lat": 54.055698,
	  "lon": 15.2825
	},
	"country": "PL",
	"id": 7533463,
	"name": "Trzebiatów"
  },
  {
	"coord": {
	  "lat": 54.612179,
	  "lon": 18.35445
	},
	"country": "PL",
	"id": 3101425,
	"name": "Ciechocino"
  },
  {
	"coord": {
	  "lat": 52.554649,
	  "lon": 19.7857
	},
	"country": "PL",
	"id": 7530890,
	"name": "Powiat płocki"
  },
  {
	"coord": {
	  "lat": 50.08913,
	  "lon": 22.536819
	},
	"country": "PL",
	"id": 7530898,
	"name": "Powiat przeworski"
  },
  {
	"coord": {
	  "lat": 50.6754,
	  "lon": 16.6028
	},
	"country": "PL",
	"id": 7532267,
	"name": "Bielawa"
  },
  {
	"coord": {
	  "lat": 50.942799,
	  "lon": 16.4932
	},
	"country": "PL",
	"id": 7533405,
	"name": "Żarów"
  },
  {
	"coord": {
	  "lat": 50.124001,
	  "lon": 22.0774
	},
	"country": "PL",
	"id": 7532312,
	"name": "Trzebownisko"
  },
  {
	"coord": {
	  "lat": 50.624599,
	  "lon": 23.723499
	},
	"country": "PL",
	"id": 7533336,
	"name": "Tyszowce"
  },
  {
	"coord": {
	  "lat": 51.426498,
	  "lon": 21.9772
	},
	"country": "PL",
	"id": 7532210,
	"name": "Puławy"
  },
  {
	"coord": {
	  "lat": 50.721298,
	  "lon": 23.248501
	},
	"country": "PL",
	"id": 7532192,
	"name": "Zamość"
  },
  {
	"coord": {
	  "lat": 49.985699,
	  "lon": 20.054939
	},
	"country": "PL",
	"id": 6690166,
	"name": "Powiat wielicki"
  },
  {
	"coord": {
	  "lat": 49.987801,
	  "lon": 20.046
	},
	"country": "PL",
	"id": 7533001,
	"name": "Wieliczka"
  },
  {
	"coord": {
	  "lat": 51.0383,
	  "lon": 21.0716
	},
	"country": "PL",
	"id": 7532300,
	"name": "Starachowice"
  },
  {
	"coord": {
	  "lat": 53.406799,
	  "lon": 23.5026
	},
	"country": "PL",
	"id": 7533534,
	"name": "Sokółka"
  },
  {
	"coord": {
	  "lat": 52.161701,
	  "lon": 22.2757
	},
	"country": "PL",
	"id": 7532815,
	"name": "Siedlce"
  },
  {
	"coord": {
	  "lat": 52.185501,
	  "lon": 20.8463
	},
	"country": "PL",
	"id": 7532279,
	"name": "Piastów"
  },
  {
	"coord": {
	  "lat": 52.184349,
	  "lon": 20.83952
	},
	"country": "PL",
	"id": 762381,
	"name": "Piastow"
  },
  {
	"coord": {
	  "lat": 54.051289,
	  "lon": 22.41695
	},
	"country": "PL",
	"id": 7531013,
	"name": "Powiat olecki"
  },
  {
	"coord": {
	  "lat": 51.853649,
	  "lon": 22.240351
	},
	"country": "PL",
	"id": 7530865,
	"name": "Powiat łukowski"
  },
  {
	"coord": {
	  "lat": 52.333199,
	  "lon": 20.8939
	},
	"country": "PL",
	"id": 7533497,
	"name": "Łomianki"
  },
  {
	"coord": {
	  "lat": 51.302502,
	  "lon": 22.885099
	},
	"country": "PL",
	"id": 7533052,
	"name": "Łęczna"
  },
  {
	"coord": {
	  "lat": 52.993698,
	  "lon": 22.8771
	},
	"country": "PL",
	"id": 7533050,
	"name": "Łapy"
  },
  {
	"coord": {
	  "lat": 50.915352,
	  "lon": 22.14576
	},
	"country": "PL",
	"id": 7530741,
	"name": "Powiat kraśnicki"
  },
  {
	"coord": {
	  "lat": 50.943401,
	  "lon": 22.213301
	},
	"country": "PL",
	"id": 7532072,
	"name": "Kraśnik"
  },
  {
	"coord": {
	  "lat": 52.083801,
	  "lon": 21.1056
	},
	"country": "PL",
	"id": 7533415,
	"name": "Konstancin-Jeziorna"
  },
  {
	"coord": {
	  "lat": 52.23547,
	  "lon": 21.04191
	},
	"country": "PL",
	"id": 6695624,
	"name": "Warszawa"
  },
  {
	"coord": {
	  "lat": 50.70776,
	  "lon": 23.86307
	},
	"country": "PL",
	"id": 7530738,
	"name": "Powiat hrubieszowski"
  },
  {
	"coord": {
	  "lat": 51.55912,
	  "lon": 21.848289
	},
	"country": "PL",
	"id": 773357,
	"name": "Deblin"
  },
  {
	"coord": {
	  "lat": 51.135578,
	  "lon": 23.48971
	},
	"country": "PL",
	"id": 7530729,
	"name": "Chełm"
  },
  {
	"coord": {
	  "lat": 50.505798,
	  "lon": 19.4704
	},
	"country": "PL",
	"id": 7531906,
	"name": "Zawiercie"
  },
  {
	"coord": {
	  "lat": 50.589691,
	  "lon": 16.812389
	},
	"country": "PL",
	"id": 3081046,
	"name": "Zabkowice Slaskie"
  },
  {
	"coord": {
	  "lat": 50.126499,
	  "lon": 19.0084
	},
	"country": "PL",
	"id": 7530984,
	"name": "Tychy"
  },
  {
	"coord": {
	  "lat": 50.1264,
	  "lon": 19.008301
	},
	"country": "PL",
	"id": 7532522,
	"name": "Tychy"
  },
  {
	"coord": {
	  "lat": 52.016102,
	  "lon": 18.511499
	},
	"country": "PL",
	"id": 7531734,
	"name": "Turek"
  },
  {
	"coord": {
	  "lat": 52.928848,
	  "lon": 16.346729
	},
	"country": "PL",
	"id": 7530954,
	"name": "Powiat czarnkowsko-trzcianecki"
  },
  {
	"coord": {
	  "lat": 53.042599,
	  "lon": 16.446501
	},
	"country": "PL",
	"id": 7533143,
	"name": "Trzcianka"
  },
  {
	"coord": {
	  "lat": 53.774639,
	  "lon": 15.77671
	},
	"country": "PL",
	"id": 3084085,
	"name": "Swidwin"
  },
  {
	"coord": {
	  "lat": 53.965469,
	  "lon": 18.526449
	},
	"country": "PL",
	"id": 7531589,
	"name": "Starogard Gdański"
  },
  {
	"coord": {
	  "lat": 53.963959,
	  "lon": 18.526381
	},
	"country": "PL",
	"id": 3084826,
	"name": "Starogard Gdanski"
  },
  {
	"coord": {
	  "lat": 52.061489,
	  "lon": 17.058531
	},
	"country": "PL",
	"id": 7531080,
	"name": "Powiat śremski"
  },
  {
	"coord": {
	  "lat": 52.08868,
	  "lon": 17.015079
	},
	"country": "PL",
	"id": 3085056,
	"name": "Srem"
  },
  {
	"coord": {
	  "lat": 49.975239,
	  "lon": 19.82869
	},
	"country": "PL",
	"id": 3085807,
	"name": "Skawina"
  },
  {
	"coord": {
	  "lat": 52.85323,
	  "lon": 19.665211
	},
	"country": "PL",
	"id": 7531338,
	"name": "Sierpc"
  },
  {
	"coord": {
	  "lat": 52.8568,
	  "lon": 19.66913
	},
	"country": "PL",
	"id": 3085941,
	"name": "Sierpc"
  },
  {
	"coord": {
	  "lat": 50.312309,
	  "lon": 19.023199
	},
	"country": "PL",
	"id": 7530985,
	"name": "Siemianowice Śląskie"
  },
  {
	"coord": {
	  "lat": 50.312309,
	  "lon": 19.023199
	},
	"country": "PL",
	"id": 7531569,
	"name": "Siemianowice Śląskie"
  },
  {
	"coord": {
	  "lat": 53.066212,
	  "lon": 19.40885
	},
	"country": "PL",
	"id": 7531610,
	"name": "Rypin"
  },
  {
	"coord": {
	  "lat": 53.066029,
	  "lon": 19.40941
	},
	"country": "PL",
	"id": 3086511,
	"name": "Rypin"
  },
  {
	"coord": {
	  "lat": 50.110821,
	  "lon": 18.549259
	},
	"country": "PL",
	"id": 7530790,
	"name": "Rybnik"
  },
  {
	"coord": {
	  "lat": 50.110802,
	  "lon": 18.5492
	},
	"country": "PL",
	"id": 7531758,
	"name": "Rybnik"
  },
  {
	"coord": {
	  "lat": 50.270061,
	  "lon": 18.874241
	},
	"country": "PL",
	"id": 7531588,
	"name": "Ruda Śląska"
  },
  {
	"coord": {
	  "lat": 54.605282,
	  "lon": 18.34717
	},
	"country": "PL",
	"id": 3087281,
	"name": "Reda"
  },
  {
	"coord": {
	  "lat": 50.4016,
	  "lon": 18.900999
	},
	"country": "PL",
	"id": 7531844,
	"name": "Radzionków"
  },
  {
	"coord": {
	  "lat": 50.400261,
	  "lon": 18.902321
	},
	"country": "PL",
	"id": 3087418,
	"name": "Radzionkow"
  },
  {
	"coord": {
	  "lat": 50.04118,
	  "lon": 18.466009
	},
	"country": "PL",
	"id": 7531104,
	"name": "Radlin"
  },
  {
	"coord": {
	  "lat": 51.894001,
	  "lon": 17.7864
	},
	"country": "PL",
	"id": 7533171,
	"name": "Pleszew"
  },
  {
	"coord": {
	  "lat": 52.3111,
	  "lon": 16.133101
	},
	"country": "PL",
	"id": 7533061,
	"name": "Nowy Tomyśl"
  },
  {
	"coord": {
	  "lat": 52.3195,
	  "lon": 16.128441
	},
	"country": "PL",
	"id": 3090452,
	"name": "Nowy Tomysl"
  },
  {
	"coord": {
	  "lat": 50.564602,
	  "lon": 19.3274
	},
	"country": "PL",
	"id": 7532873,
	"name": "Myszków"
  },
  {
	"coord": {
	  "lat": 50.475151,
	  "lon": 17.965389
	},
	"country": "PL",
	"id": 3094788,
	"name": "Krapkowice"
  },
  {
	"coord": {
	  "lat": 54.2071,
	  "lon": 16.2166
	},
	"country": "PL",
	"id": 7532538,
	"name": "Koszalin"
  },
  {
	"coord": {
	  "lat": 52.083401,
	  "lon": 16.649401
	},
	"country": "PL",
	"id": 7532028,
	"name": "Kościan"
  },
  {
	"coord": {
	  "lat": 50.974499,
	  "lon": 18.2204
	},
	"country": "PL",
	"id": 7533189,
	"name": "Kluczbork"
  },
  {
	"coord": {
	  "lat": 50.972809,
	  "lon": 18.218161
	},
	"country": "PL",
	"id": 3096003,
	"name": "Kluczbork"
  },
  {
	"coord": {
	  "lat": 51.021019,
	  "lon": 17.32095
	},
	"country": "PL",
	"id": 3097271,
	"name": "Jelcz"
  },
  {
	"coord": {
	  "lat": 51.961498,
	  "lon": 17.5075
	},
	"country": "PL",
	"id": 7533024,
	"name": "Jarocin"
  },
  {
	"coord": {
	  "lat": 51.97266,
	  "lon": 17.50256
	},
	"country": "PL",
	"id": 3097528,
	"name": "Jarocin"
  },
  {
	"coord": {
	  "lat": 53.9165,
	  "lon": 15.20027
	},
	"country": "PL",
	"id": 3098201,
	"name": "Gryfice"
  },
  {
	"coord": {
	  "lat": 52.429379,
	  "lon": 19.461941
	},
	"country": "PL",
	"id": 3098619,
	"name": "Gostynin"
  },
  {
	"coord": {
	  "lat": 52.524921,
	  "lon": 17.603279
	},
	"country": "PL",
	"id": 7531632,
	"name": "Gniezno"
  },
  {
	"coord": {
	  "lat": 50.315048,
	  "lon": 17.383551
	},
	"country": "PL",
	"id": 3099169,
	"name": "Glucholazy"
  },
  {
	"coord": {
	  "lat": 51.96463,
	  "lon": 19.715651
	},
	"country": "PL",
	"id": 3099180,
	"name": "Glowno"
  },
  {
	"coord": {
	  "lat": 53.12973,
	  "lon": 18.0383
	},
	"country": "PL",
	"id": 7530814,
	"name": "Bydgoszcz"
  },
  {
	"coord": {
	  "lat": 53.12973,
	  "lon": 18.0383
	},
	"country": "PL",
	"id": 7531378,
	"name": "Bydgoszcz"
  },
  {
	"coord": {
	  "lat": 53.148209,
	  "lon": 18.170361
	},
	"country": "PL",
	"id": 3099654,
	"name": "Fordon"
  },
  {
	"coord": {
	  "lat": 50.15007,
	  "lon": 18.67762
	},
	"country": "PL",
	"id": 3100974,
	"name": "Czerwionka-Leszczyny"
  },
  {
	"coord": {
	  "lat": 50.319191,
	  "lon": 19.08231
	},
	"country": "PL",
	"id": 7531551,
	"name": "Czeladź"
  },
  {
	"coord": {
	  "lat": 51.368832,
	  "lon": 19.35671
	},
	"country": "PL",
	"id": 3103709,
	"name": "Belchatow"
  },
  {
	"coord": {
	  "lat": 49.55315,
	  "lon": 22.233049
	},
	"country": "PL",
	"id": 763310,
	"name": "Olchowce"
  },
  {
	"coord": {
	  "lat": 50.45583,
	  "lon": 20.87624
	},
	"country": "PL",
	"id": 7531037,
	"name": "Powiat buski"
  },
  {
	"coord": {
	  "lat": 50.458302,
	  "lon": 20.922899
	},
	"country": "PL",
	"id": 7531876,
	"name": "Stopnica"
  },
  {
	"coord": {
	  "lat": 50.671188,
	  "lon": 17.929741
	},
	"country": "PL",
	"id": 3090046,
	"name": "Opole-Szczepanowice"
  },
  {
	"coord": {
	  "lat": 50.695148,
	  "lon": 22.383101
	},
	"country": "PL",
	"id": 760155,
	"name": "Ruda"
  },
  {
	"coord": {
	  "lat": 50.712849,
	  "lon": 22.425329
	},
	"country": "PL",
	"id": 776174,
	"name": "Biała Poduchowna"
  },
  {
	"coord": {
	  "lat": 50.96685,
	  "lon": 21.400961
	},
	"country": "PL",
	"id": 771210,
	"name": "Gutwin"
  },
  {
	"coord": {
	  "lat": 51.41724,
	  "lon": 21.15613
	},
	"country": "PL",
	"id": 7530982,
	"name": "Radom"
  },
  {
	"coord": {
	  "lat": 51.631901,
	  "lon": 16.908091
	},
	"country": "PL",
	"id": 3086247,
	"name": "Sarnówka"
  },
  {
	"coord": {
	  "lat": 52.126572,
	  "lon": 21.39344
	},
	"country": "PL",
	"id": 755270,
	"name": "Wola Karczewska"
  },
  {
	"coord": {
	  "lat": 52.184292,
	  "lon": 21.608931
	},
	"country": "PL",
	"id": 7530877,
	"name": "Powiat miński"
  },
  {
	"coord": {
	  "lat": 53.135239,
	  "lon": 23.180019
	},
	"country": "PL",
	"id": 759065,
	"name": "Skorupy"
  },
  {
	"coord": {
	  "lat": 53.155331,
	  "lon": 17.912189
	},
	"country": "PL",
	"id": 3089822,
	"name": "Osowa Góra"
  },
  {
	"coord": {
	  "lat": 54.25,
	  "lon": 18.0
	},
	"country": "PL",
	"id": 3337496,
	"name": "Województwo Pomorskie"
  },
  {
	"coord": {
	  "lat": 53.795681,
	  "lon": 20.4345
	},
	"country": "PL",
	"id": 766303,
	"name": "Likusy"
  },
  {
	"coord": {
	  "lat": 53.810631,
	  "lon": 21.397579
	},
	"country": "PL",
	"id": 7531072,
	"name": "Powiat mrągowski"
  },
  {
	"coord": {
	  "lat": 53.8685,
	  "lon": 21.29887
	},
	"country": "PL",
	"id": 7531477,
	"name": "Mrągowo"
  },
  {
	"coord": {
	  "lat": 52.3367,
	  "lon": 16.8729
	},
	"country": "PL",
	"id": 7532643,
	"name": "Luboń"
  },
  {
	"coord": {
	  "lat": 49.410259,
	  "lon": 20.9555
	},
	"country": "PL",
	"id": 767369,
	"name": "Krynica-Wieś"
  },
  {
	"coord": {
	  "lat": 49.65715,
	  "lon": 22.201139
	},
	"country": "PL",
	"id": 767234,
	"name": "Krzywe"
  },
  {
	"coord": {
	  "lat": 53.7495,
	  "lon": 19.2145
	},
	"country": "PL",
	"id": 7533532,
	"name": "Prabuty"
  },
  {
	"coord": {
	  "lat": 50.433701,
	  "lon": 16.649
	},
	"country": "PL",
	"id": 7531693,
	"name": "Kłodzko"
  },
  {
	"coord": {
	  "lat": 50.166672,
	  "lon": 18.9
	},
	"country": "PL",
	"id": 3081203,
	"name": "Wymyślanka"
  },
  {
	"coord": {
	  "lat": 50.583851,
	  "lon": 21.69874
	},
	"country": "PL",
	"id": 7530839,
	"name": "Tarnobrzeg"
  },
  {
	"coord": {
	  "lat": 50.03896,
	  "lon": 18.6884
	},
	"country": "PL",
	"id": 7530953,
	"name": "Żory"
  },
  {
	"coord": {
	  "lat": 50.05452,
	  "lon": 22.50116
	},
	"country": "PL",
	"id": 7531247,
	"name": "Przeworsk"
  },
  {
	"coord": {
	  "lat": 49.941551,
	  "lon": 18.314381
	},
	"country": "PL",
	"id": 3081069,
	"name": "Zabełków"
  },
  {
	"coord": {
	  "lat": 49.982578,
	  "lon": 17.86652
	},
	"country": "PL",
	"id": 3082359,
	"name": "Wiechowice"
  },
  {
	"coord": {
	  "lat": 50.721401,
	  "lon": 23.24852
	},
	"country": "PL",
	"id": 7530730,
	"name": "Zamość"
  },
  {
	"coord": {
	  "lat": 52.342602,
	  "lon": 21.2362
	},
	"country": "PL",
	"id": 7533365,
	"name": "Wołomin"
  },
  {
	"coord": {
	  "lat": 51.124699,
	  "lon": 22.85397
	},
	"country": "PL",
	"id": 7530871,
	"name": "Powiat świdnicki"
  },
  {
	"coord": {
	  "lat": 51.216709,
	  "lon": 22.68494
	},
	"country": "PL",
	"id": 7531487,
	"name": "Świdnik"
  },
  {
	"coord": {
	  "lat": 51.122898,
	  "lon": 20.8752
	},
	"country": "PL",
	"id": 7532739,
	"name": "Skarżysko-Kamienna"
  },
  {
	"coord": {
	  "lat": 52.420502,
	  "lon": 22.875099
	},
	"country": "PL",
	"id": 7532294,
	"name": "Siemiatycze"
  },
  {
	"coord": {
	  "lat": 52.161751,
	  "lon": 22.275749
	},
	"country": "PL",
	"id": 7530940,
	"name": "Siedlce"
  },
  {
	"coord": {
	  "lat": 52.172001,
	  "lon": 20.798599
	},
	"country": "PL",
	"id": 7531704,
	"name": "Pruszków"
  },
  {
	"coord": {
	  "lat": 52.116001,
	  "lon": 21.289301
	},
	"country": "PL",
	"id": 7532584,
	"name": "Otwock"
  },
  {
	"coord": {
	  "lat": 54.036098,
	  "lon": 22.4981
	},
	"country": "PL",
	"id": 7533381,
	"name": "Olecko"
  },
  {
	"coord": {
	  "lat": 50.503201,
	  "lon": 22.129
	},
	"country": "PL",
	"id": 7533317,
	"name": "Nisko"
  },
  {
	"coord": {
	  "lat": 52.124802,
	  "lon": 20.6703
	},
	"country": "PL",
	"id": 7531822,
	"name": "Milanówek"
  },
  {
	"coord": {
	  "lat": 51.458408,
	  "lon": 22.605869
	},
	"country": "PL",
	"id": 7531123,
	"name": "Lubartów"
  },
  {
	"coord": {
	  "lat": 53.182671,
	  "lon": 22.05888
	},
	"country": "PL",
	"id": 7530773,
	"name": "Łomża"
  },
  {
	"coord": {
	  "lat": 53.182671,
	  "lon": 22.05888
	},
	"country": "PL",
	"id": 7531442,
	"name": "Łomża"
  },
  {
	"coord": {
	  "lat": 52.268379,
	  "lon": 20.619129
	},
	"country": "PL",
	"id": 7531029,
	"name": "Powiat warszawski zachodni"
  },
  {
	"coord": {
	  "lat": 52.233101,
	  "lon": 21.061399
	},
	"country": "PL",
	"id": 7531926,
	"name": "Warszawa"
  },
  {
	"coord": {
	  "lat": 52.105202,
	  "lon": 20.6332
	},
	"country": "PL",
	"id": 7533507,
	"name": "Grodzisk Mazowiecki"
  },
  {
	"coord": {
	  "lat": 53.823898,
	  "lon": 22.3598
	},
	"country": "PL",
	"id": 7531646,
	"name": "Ełk"
  },
  {
	"coord": {
	  "lat": 51.567299,
	  "lon": 21.8743
	},
	"country": "PL",
	"id": 7532275,
	"name": "Dęblin"
  },
  {
	"coord": {
	  "lat": 50.539001,
	  "lon": 22.711599
	},
	"country": "PL",
	"id": 7532583,
	"name": "Biłgoraj"
  },
  {
	"coord": {
	  "lat": 49.706299,
	  "lon": 19.2097
	},
	"country": "PL",
	"id": 7532895,
	"name": "Żywiec"
  },
  {
	"coord": {
	  "lat": 53.374001,
	  "lon": 17.066299
	},
	"country": "PL",
	"id": 7532319,
	"name": "Złotów"
  },
  {
	"coord": {
	  "lat": 53.363461,
	  "lon": 17.040819
	},
	"country": "PL",
	"id": 3080071,
	"name": "Zlotow"
  },
  {
	"coord": {
	  "lat": 52.665298,
	  "lon": 19.060801
	},
	"country": "PL",
	"id": 7532956,
	"name": "Włocławek"
  },
  {
	"coord": {
	  "lat": 52.812199,
	  "lon": 17.1978
	},
	"country": "PL",
	"id": 7532411,
	"name": "Wągrowiec"
  },
  {
	"coord": {
	  "lat": 51.995811,
	  "lon": 18.49301
	},
	"country": "PL",
	"id": 7531004,
	"name": "Powiat turecki"
  },
  {
	"coord": {
	  "lat": 50.297958,
	  "lon": 18.910219
	},
	"country": "PL",
	"id": 7530992,
	"name": "Świętochłowice"
  },
  {
	"coord": {
	  "lat": 52.244202,
	  "lon": 15.5311
	},
	"country": "PL",
	"id": 7533428,
	"name": "Świebodzin"
  },
  {
	"coord": {
	  "lat": 52.247509,
	  "lon": 15.53355
	},
	"country": "PL",
	"id": 3084062,
	"name": "Swiebodzin"
  },
  {
	"coord": {
	  "lat": 53.807579,
	  "lon": 15.89859
	},
	"country": "PL",
	"id": 7531011,
	"name": "Powiat świdwiński"
  },
  {
	"coord": {
	  "lat": 52.0867,
	  "lon": 17.0187
	},
	"country": "PL",
	"id": 7533378,
	"name": "Śrem"
  },
  {
	"coord": {
	  "lat": 49.973301,
	  "lon": 19.825001
	},
	"country": "PL",
	"id": 7533539,
	"name": "Skawina"
  },
  {
	"coord": {
	  "lat": 53.066132,
	  "lon": 19.40975
	},
	"country": "PL",
	"id": 7530915,
	"name": "Powiat rypiński"
  },
  {
	"coord": {
	  "lat": 50.270061,
	  "lon": 18.874241
	},
	"country": "PL",
	"id": 7530951,
	"name": "Ruda Śląska"
  },
  {
	"coord": {
	  "lat": 54.608559,
	  "lon": 18.348881
	},
	"country": "PL",
	"id": 7531598,
	"name": "Reda"
  },
  {
	"coord": {
	  "lat": 53.531139,
	  "lon": 14.45104
	},
	"country": "PL",
	"id": 7530844,
	"name": "Powiat policki"
  },
  {
	"coord": {
	  "lat": 53.567699,
	  "lon": 14.5792
	},
	"country": "PL",
	"id": 7533330,
	"name": "Police"
  },
  {
	"coord": {
	  "lat": 50.033649,
	  "lon": 19.256121
	},
	"country": "PL",
	"id": 7531521,
	"name": "Oświęcim"
  },
  {
	"coord": {
	  "lat": 50.4575,
	  "lon": 17.31308
	},
	"country": "PL",
	"id": 3090433,
	"name": "Nysa Zamlynie"
  },
  {
	"coord": {
	  "lat": 50.209621,
	  "lon": 19.153879
	},
	"country": "PL",
	"id": 7531586,
	"name": "Mysłowice"
  },
  {
	"coord": {
	  "lat": 50.196091,
	  "lon": 18.861891
	},
	"country": "PL",
	"id": 7531571,
	"name": "Mikołów"
  },
  {
	"coord": {
	  "lat": 52.448299,
	  "lon": 15.5914
	},
	"country": "PL",
	"id": 7533483,
	"name": "Międzyrzecz"
  },
  {
	"coord": {
	  "lat": 54.028461,
	  "lon": 19.04435
	},
	"country": "PL",
	"id": 7531264,
	"name": "Malbork"
  },
  {
	"coord": {
	  "lat": 52.054298,
	  "lon": 19.198999
	},
	"country": "PL",
	"id": 7532231,
	"name": "Łęczyca"
  },
  {
	"coord": {
	  "lat": 50.478401,
	  "lon": 17.957399
	},
	"country": "PL",
	"id": 7533311,
	"name": "Krapkowice"
  },
  {
	"coord": {
	  "lat": 54.207191,
	  "lon": 16.21661
	},
	"country": "PL",
	"id": 7530983,
	"name": "Koszalin"
  },
  {
	"coord": {
	  "lat": 52.066158,
	  "lon": 16.715139
	},
	"country": "PL",
	"id": 7531076,
	"name": "Powiat kościański"
  },
  {
	"coord": {
	  "lat": 52.19838,
	  "lon": 18.63546
	},
	"country": "PL",
	"id": 7531410,
	"name": "Koło"
  },
  {
	"coord": {
	  "lat": 50.98576,
	  "lon": 18.15258
	},
	"country": "PL",
	"id": 7530761,
	"name": "Powiat kluczborski"
  },
  {
	"coord": {
	  "lat": 51.74725,
	  "lon": 18.076059
	},
	"country": "PL",
	"id": 7530863,
	"name": "Kalisz"
  },
  {
	"coord": {
	  "lat": 51.7472,
	  "lon": 18.076
	},
	"country": "PL",
	"id": 7531679,
	"name": "Kalisz"
  },
  {
	"coord": {
	  "lat": 51.761089,
	  "lon": 18.091021
	},
	"country": "PL",
	"id": 3096880,
	"name": "Kalisz"
  },
  {
	"coord": {
	  "lat": 52.00901,
	  "lon": 17.454969
	},
	"country": "PL",
	"id": 7531075,
	"name": "Powiat jarociński"
  },
  {
	"coord": {
	  "lat": 51.957199,
	  "lon": 14.749
	},
	"country": "PL",
	"id": 7532114,
	"name": "Gubin"
  },
  {
	"coord": {
	  "lat": 52.389881,
	  "lon": 19.62187
	},
	"country": "PL",
	"id": 7530928,
	"name": "Powiat gostyniński"
  },
  {
	"coord": {
	  "lat": 50.313702,
	  "lon": 17.368401
	},
	"country": "PL",
	"id": 7532986,
	"name": "Głuchołazy"
  },
  {
	"coord": {
	  "lat": 51.962002,
	  "lon": 19.714001
	},
	"country": "PL",
	"id": 7532274,
	"name": "Głowno"
  },
  {
	"coord": {
	  "lat": 50.150341,
	  "lon": 18.678471
	},
	"country": "PL",
	"id": 7533185,
	"name": "Czerwionka-Leszczyny"
  },
  {
	"coord": {
	  "lat": 52.9949,
	  "lon": 16.915701
	},
	"country": "PL",
	"id": 7531638,
	"name": "Chodzież"
  },
  {
	"coord": {
	  "lat": 50.365211,
	  "lon": 18.876301
	},
	"country": "PL",
	"id": 7530986,
	"name": "Bytom"
  },
  {
	"coord": {
	  "lat": 50.3652,
	  "lon": 18.876301
	},
	"country": "PL",
	"id": 7532536,
	"name": "Bytom"
  },
  {
	"coord": {
	  "lat": 50.858898,
	  "lon": 17.462799
	},
	"country": "PL",
	"id": 7532249,
	"name": "Brzeg"
  },
  {
	"coord": {
	  "lat": 50.86079,
	  "lon": 17.4674
	},
	"country": "PL",
	"id": 3102459,
	"name": "Brzeg"
  },
  {
	"coord": {
	  "lat": 51.816002,
	  "lon": 19.303801
	},
	"country": "PL",
	"id": 7533560,
	"name": "Aleksandrów Łódzki"
  },
  {
	"coord": {
	  "lat": 51.0327,
	  "lon": 17.33
	},
	"country": "PL",
	"id": 7532997,
	"name": "Jelcz-Laskowice"
  },
  {
	"coord": {
	  "lat": 51.021339,
	  "lon": 17.31649
	},
	"country": "PL",
	"id": 7303641,
	"name": "Jelcz Laskowice"
  },
  {
	"coord": {
	  "lat": 50.09449,
	  "lon": 19.40357
	},
	"country": "PL",
	"id": 3080925,
	"name": "Zagorze"
  },
  {
	"coord": {
	  "lat": 52.16835,
	  "lon": 17.895611
	},
	"country": "PL",
	"id": 3080929,
	"name": "Zagorow"
  },
  {
	"coord": {
	  "lat": 50.0,
	  "lon": 22.0
	},
	"country": "PL",
	"id": 858788,
	"name": "Województwo Podkarpackie"
  },
  {
	"coord": {
	  "lat": 49.642632,
	  "lon": 21.446369
	},
	"country": "PL",
	"id": 7530770,
	"name": "Powiat jasielski"
  },
  {
	"coord": {
	  "lat": 49.600689,
	  "lon": 21.527929
	},
	"country": "PL",
	"id": 7531301,
	"name": "Nowy Żmigród"
  },
  {
	"coord": {
	  "lat": 49.603531,
	  "lon": 21.52376
	},
	"country": "PL",
	"id": 763519,
	"name": "Nowy Zmigrod"
  },
  {
	"coord": {
	  "lat": 49.75,
	  "lon": 20.5
	},
	"country": "PL",
	"id": 858786,
	"name": "Województwo Małopolskie"
  },
  {
	"coord": {
	  "lat": 49.63467,
	  "lon": 20.69824
	},
	"country": "PL",
	"id": 6690157,
	"name": "Powiat nowosądecki"
  },
  {
	"coord": {
	  "lat": 49.610199,
	  "lon": 20.7066
	},
	"country": "PL",
	"id": 7532585,
	"name": "Nowy Sącz"
  },
  {
	"coord": {
	  "lat": 49.621769,
	  "lon": 20.69705
	},
	"country": "PL",
	"id": 763534,
	"name": "Nowy Sacz"
  },
  {
	"coord": {
	  "lat": 49.662941,
	  "lon": 20.632231
	},
	"country": "PL",
	"id": 769117,
	"name": "Klęczany"
  },
  {
	"coord": {
	  "lat": 49.747002,
	  "lon": 21.471701
	},
	"country": "PL",
	"id": 7532613,
	"name": "Jasło"
  },
  {
	"coord": {
	  "lat": 49.74506,
	  "lon": 21.472521
	},
	"country": "PL",
	"id": 770293,
	"name": "Jaslo"
  },
  {
	"coord": {
	  "lat": 49.999229,
	  "lon": 21.353979
	},
	"country": "PL",
	"id": 7530769,
	"name": "Powiat dębicki"
  },
  {
	"coord": {
	  "lat": 50.045952,
	  "lon": 21.4158
	},
	"country": "PL",
	"id": 7531275,
	"name": "Dębica"
  },
  {
	"coord": {
	  "lat": 50.05146,
	  "lon": 21.411409
	},
	"country": "PL",
	"id": 773380,
	"name": "Debica"
  },
  {
	"coord": {
	  "lat": 50.04628,
	  "lon": 22.028191
	},
	"country": "PL",
	"id": 761968,
	"name": "Pobitno"
  },
  {
	"coord": {
	  "lat": 50.066669,
	  "lon": 19.98333
	},
	"country": "PL",
	"id": 3100883,
	"name": "Dąbie"
  },
  {
	"coord": {
	  "lat": 50.25,
	  "lon": 19.0
	},
	"country": "PL",
	"id": 3337497,
	"name": "Województwo Śląskie"
  },
  {
	"coord": {
	  "lat": 50.13707,
	  "lon": 19.0042
	},
	"country": "PL",
	"id": 3079920,
	"name": "Zwierzyniec"
  },
  {
	"coord": {
	  "lat": 51.0,
	  "lon": 16.5
	},
	"country": "PL",
	"id": 3337492,
	"name": "Województwo Dolnośląskie"
  },
  {
	"coord": {
	  "lat": 50.228981,
	  "lon": 16.76531
	},
	"country": "PL",
	"id": 3092005,
	"name": "Międzgórze"
  },
  {
	"coord": {
	  "lat": 50.261589,
	  "lon": 22.43828
	},
	"country": "PL",
	"id": 7530895,
	"name": "Powiat leżajski"
  },
  {
	"coord": {
	  "lat": 50.265499,
	  "lon": 22.4186
	},
	"country": "PL",
	"id": 7532578,
	"name": "Leżajsk"
  },
  {
	"coord": {
	  "lat": 50.262569,
	  "lon": 22.419319
	},
	"country": "PL",
	"id": 766332,
	"name": "Lezajsk"
  },
  {
	"coord": {
	  "lat": 50.542252,
	  "lon": 19.611919
	},
	"country": "PL",
	"id": 7531035,
	"name": "Powiat zawierciański"
  },
  {
	"coord": {
	  "lat": 50.425201,
	  "lon": 19.392
	},
	"country": "PL",
	"id": 7533249,
	"name": "Łazy"
  },
  {
	"coord": {
	  "lat": 50.75,
	  "lon": 20.75
	},
	"country": "PL",
	"id": 858790,
	"name": "Województwo Świętokrzyskie"
  },
  {
	"coord": {
	  "lat": 50.517368,
	  "lon": 21.19594
	},
	"country": "PL",
	"id": 7531041,
	"name": "Powiat staszowski"
  },
  {
	"coord": {
	  "lat": 50.562,
	  "lon": 21.190701
	},
	"country": "PL",
	"id": 7533517,
	"name": "Staszów"
  },
  {
	"coord": {
	  "lat": 50.563068,
	  "lon": 21.16593
	},
	"country": "PL",
	"id": 758252,
	"name": "Staszow"
  },
  {
	"coord": {
	  "lat": 50.59103,
	  "lon": 22.052031
	},
	"country": "PL",
	"id": 7530899,
	"name": "Powiat stalowowolski"
  },
  {
	"coord": {
	  "lat": 50.56649,
	  "lon": 22.01749
	},
	"country": "PL",
	"id": 7531427,
	"name": "Stalowa Wola"
  },
  {
	"coord": {
	  "lat": 50.582859,
	  "lon": 22.053341
	},
	"country": "PL",
	"id": 758445,
	"name": "Stalowa Wola"
  },
  {
	"coord": {
	  "lat": 50.623798,
	  "lon": 19.508631
	},
	"country": "PL",
	"id": 3090289,
	"name": "Ogorzelnik"
  },
  {
	"coord": {
	  "lat": 50.5,
	  "lon": 18.0
	},
	"country": "PL",
	"id": 3337495,
	"name": "Województwo Opolskie"
  },
  {
	"coord": {
	  "lat": 51.0,
	  "lon": 23.0
	},
	"country": "PL",
	"id": 858785,
	"name": "Województwo Lubelskie"
  },
  {
	"coord": {
	  "lat": 50.874561,
	  "lon": 15.66408
	},
	"country": "PL",
	"id": 7530816,
	"name": "Powiat jeleniogórski"
  },
  {
	"coord": {
	  "lat": 50.763802,
	  "lon": 15.7442
	},
	"country": "PL",
	"id": 7532480,
	"name": "Karpacz"
  },
  {
	"coord": {
	  "lat": 50.776691,
	  "lon": 15.75594
	},
	"country": "PL",
	"id": 3096576,
	"name": "Karpacz"
  },
  {
	"coord": {
	  "lat": 50.788738,
	  "lon": 15.77878
	},
	"country": "PL",
	"id": 3086212,
	"name": "Ściegny"
  },
  {
	"coord": {
	  "lat": 50.76688,
	  "lon": 17.106291
	},
	"country": "PL",
	"id": 7530837,
	"name": "Powiat strzeliński"
  },
  {
	"coord": {
	  "lat": 50.857399,
	  "lon": 17.0065
	},
	"country": "PL",
	"id": 7531988,
	"name": "Borów"
  },
  {
	"coord": {
	  "lat": 50.84996,
	  "lon": 17.059879
	},
	"country": "PL",
	"id": 3083956,
	"name": "Świnobród"
  },
  {
	"coord": {
	  "lat": 50.870331,
	  "lon": 20.62752
	},
	"country": "PL",
	"id": 769250,
	"name": "Kielce"
  },
  {
	"coord": {
	  "lat": 50.942322,
	  "lon": 21.407391
	},
	"country": "PL",
	"id": 7530829,
	"name": "Powiat ostrowiecki"
  },
  {
	"coord": {
	  "lat": 51.018021,
	  "lon": 21.5411
	},
	"country": "PL",
	"id": 7531229,
	"name": "Bałtów"
  },
  {
	"coord": {
	  "lat": 51.018452,
	  "lon": 21.54385
	},
	"country": "PL",
	"id": 776454,
	"name": "Baltow"
  },
  {
	"coord": {
	  "lat": 51.06496,
	  "lon": 20.79228
	},
	"country": "PL",
	"id": 7530997,
	"name": "Powiat skarżyski"
  },
  {
	"coord": {
	  "lat": 51.051601,
	  "lon": 20.831699
	},
	"country": "PL",
	"id": 7533074,
	"name": "Suchedniów"
  },
  {
	"coord": {
	  "lat": 51.04776,
	  "lon": 20.82922
	},
	"country": "PL",
	"id": 757886,
	"name": "Suchedniow"
  },
  {
	"coord": {
	  "lat": 51.166672,
	  "lon": 17.16667
	},
	"country": "PL",
	"id": 3091752,
	"name": "Miłostów"
  },
  {
	"coord": {
	  "lat": 51.166672,
	  "lon": 16.91667
	},
	"country": "PL",
	"id": 3081366,
	"name": "Wrocław Pracze"
  },
  {
	"coord": {
	  "lat": 51.174049,
	  "lon": 16.90534
	},
	"country": "PL",
	"id": 3088156,
	"name": "Pracze Odrzańskie"
  },
  {
	"coord": {
	  "lat": 52.25,
	  "lon": 21.0
	},
	"country": "PL",
	"id": 858787,
	"name": "Województwo Mazowieckie"
  },
  {
	"coord": {
	  "lat": 51.225239,
	  "lon": 21.13858
	},
	"country": "PL",
	"id": 761556,
	"name": "Pomorzany"
  },
  {
	"coord": {
	  "lat": 51.236279,
	  "lon": 16.648479
	},
	"country": "PL",
	"id": 3085484,
	"name": "Słup"
  },
  {
	"coord": {
	  "lat": 51.32362,
	  "lon": 21.52887
	},
	"country": "PL",
	"id": 769949,
	"name": "Julianów"
  },
  {
	"coord": {
	  "lat": 51.368771,
	  "lon": 19.17791
	},
	"country": "PL",
	"id": 7531010,
	"name": "Powiat bełchatowski"
  },
  {
	"coord": {
	  "lat": 51.320511,
	  "lon": 19.124689
	},
	"country": "PL",
	"id": 7531362,
	"name": "Szczerców"
  },
  {
	"coord": {
	  "lat": 51.333191,
	  "lon": 19.10977
	},
	"country": "PL",
	"id": 3083788,
	"name": "Szczercow"
  },
  {
	"coord": {
	  "lat": 51.402531,
	  "lon": 21.147141
	},
	"country": "PL",
	"id": 760778,
	"name": "Radom"
  },
  {
	"coord": {
	  "lat": 51.335819,
	  "lon": 21.16193
	},
	"country": "PL",
	"id": 7530878,
	"name": "Powiat radomski"
  },
  {
	"coord": {
	  "lat": 51.471699,
	  "lon": 21.447399
	},
	"country": "PL",
	"id": 7532054,
	"name": "Pionki"
  },
  {
	"coord": {
	  "lat": 51.47604,
	  "lon": 21.449949
	},
	"country": "PL",
	"id": 762199,
	"name": "Pionki"
  },
  {
	"coord": {
	  "lat": 51.585999,
	  "lon": 21.536501
	},
	"country": "PL",
	"id": 7533191,
	"name": "Kozienice"
  },
  {
	"coord": {
	  "lat": 51.582939,
	  "lon": 21.547791
	},
	"country": "PL",
	"id": 767814,
	"name": "Kozienice"
  },
  {
	"coord": {
	  "lat": 52.25,
	  "lon": 17.0
	},
	"country": "PL",
	"id": 3337498,
	"name": "Województwo Wielkopolskie"
  },
  {
	"coord": {
	  "lat": 51.706001,
	  "lon": 19.49246
	},
	"country": "PL",
	"id": 3097078,
	"name": "Józefów"
  },
  {
	"coord": {
	  "lat": 51.75,
	  "lon": 19.466669
	},
	"country": "PL",
	"id": 3093133,
	"name": "Lodz"
  },
  {
	"coord": {
	  "lat": 51.783329,
	  "lon": 19.41667
	},
	"country": "PL",
	"id": 3079992,
	"name": "Zubardź"
  },
  {
	"coord": {
	  "lat": 52.003189,
	  "lon": 19.10252
	},
	"country": "PL",
	"id": 3094508,
	"name": "Krzepocinek"
  },
  {
	"coord": {
	  "lat": 52.153431,
	  "lon": 20.82316
	},
	"country": "PL",
	"id": 762925,
	"name": "Ostoja"
  },
  {
	"coord": {
	  "lat": 52.192558,
	  "lon": 21.72332
	},
	"country": "PL",
	"id": 770155,
	"name": "Jędrzejów"
  },
  {
	"coord": {
	  "lat": 52.20319,
	  "lon": 20.859779
	},
	"country": "PL",
	"id": 771973,
	"name": "Gołąbki"
  },
  {
	"coord": {
	  "lat": 52.209999,
	  "lon": 16.57638
	},
	"country": "PL",
	"id": 3096937,
	"name": "Kąkolewo"
  },
  {
	"coord": {
	  "lat": 52.23333,
	  "lon": 17.51667
	},
	"country": "PL",
	"id": 3080874,
	"name": "Zajezierze"
  },
  {
	"coord": {
	  "lat": 52.366669,
	  "lon": 16.91667
	},
	"country": "PL",
	"id": 3100594,
	"name": "Dębiec"
  },
  {
	"coord": {
	  "lat": 52.45179,
	  "lon": 20.94356
	},
	"country": "PL",
	"id": 7530926,
	"name": "Powiat legionowski"
  },
  {
	"coord": {
	  "lat": 52.39362,
	  "lon": 20.870701
	},
	"country": "PL",
	"id": 7531479,
	"name": "Jabłonna"
  },
  {
	"coord": {
	  "lat": 52.378849,
	  "lon": 20.91745
	},
	"country": "PL",
	"id": 770706,
	"name": "Jablonna"
  },
  {
	"coord": {
	  "lat": 52.400631,
	  "lon": 16.901541
	},
	"country": "PL",
	"id": 7530858,
	"name": "Poznań"
  },
  {
	"coord": {
	  "lat": 52.406189,
	  "lon": 16.92341
	},
	"country": "PL",
	"id": 7531836,
	"name": "Poznań"
  },
  {
	"coord": {
	  "lat": 52.414669,
	  "lon": 16.896629
	},
	"country": "PL",
	"id": 3097127,
	"name": "Jeżyce"
  },
  {
	"coord": {
	  "lat": 53.0,
	  "lon": 18.5
	},
	"country": "PL",
	"id": 3337500,
	"name": "Województwo Kujawsko-Pomorskie"
  },
  {
	"coord": {
	  "lat": 52.661598,
	  "lon": 18.07424
	},
	"country": "PL",
	"id": 7530912,
	"name": "Powiat mogileński"
  },
  {
	"coord": {
	  "lat": 52.530689,
	  "lon": 18.267349
	},
	"country": "PL",
	"id": 7532061,
	"name": "Jeziora Wielkie"
  },
  {
	"coord": {
	  "lat": 52.507549,
	  "lon": 18.220831
	},
	"country": "PL",
	"id": 3081562,
	"name": "Wola Kożuszkowa"
  },
  {
	"coord": {
	  "lat": 52.622169,
	  "lon": 18.04233
	},
	"country": "PL",
	"id": 3094083,
	"name": "Kwieciszewo"
  },
  {
	"coord": {
	  "lat": 52.700001,
	  "lon": 23.83333
	},
	"country": "PL",
	"id": 753732,
	"name": "Zastawa"
  },
  {
	"coord": {
	  "lat": 52.25,
	  "lon": 15.25
	},
	"country": "PL",
	"id": 3337494,
	"name": "Województwo Lubuskie"
  },
  {
	"coord": {
	  "lat": 52.767609,
	  "lon": 15.2077
	},
	"country": "PL",
	"id": 3101497,
	"name": "Chwalęcice"
  },
  {
	"coord": {
	  "lat": 52.864849,
	  "lon": 19.111601
	},
	"country": "PL",
	"id": 3083135,
	"name": "Trzebiegoszcz"
  },
  {
	"coord": {
	  "lat": 53.02298,
	  "lon": 14.49912
	},
	"country": "PL",
	"id": 7530989,
	"name": "Powiat gryfiński"
  },
  {
	"coord": {
	  "lat": 52.9562,
	  "lon": 14.4269
	},
	"country": "PL",
	"id": 7533173,
	"name": "Chojna"
  },
  {
	"coord": {
	  "lat": 52.96389,
	  "lon": 14.42797
	},
	"country": "PL",
	"id": 3101675,
	"name": "Chojna"
  },
  {
	"coord": {
	  "lat": 52.971771,
	  "lon": 17.72641
	},
	"country": "PL",
	"id": 3094960,
	"name": "Kowalewo"
  },
  {
	"coord": {
	  "lat": 53.25,
	  "lon": 23.0
	},
	"country": "PL",
	"id": 858789,
	"name": "Województwo Podlaskie"
  },
  {
	"coord": {
	  "lat": 53.250439,
	  "lon": 16.020439
	},
	"country": "PL",
	"id": 3090763,
	"name": "Nowa Studnica"
  },
  {
	"coord": {
	  "lat": 53.478951,
	  "lon": 15.51094
	},
	"country": "PL",
	"id": 7288011,
	"name": "Sarnikierz"
  },
  {
	"coord": {
	  "lat": 53.472462,
	  "lon": 18.77849
	},
	"country": "PL",
	"id": 7530969,
	"name": "Grudziądz"
  },
  {
	"coord": {
	  "lat": 53.48233,
	  "lon": 18.755381
	},
	"country": "PL",
	"id": 7532955,
	"name": "Grudziądz"
  },
  {
	"coord": {
	  "lat": 53.484112,
	  "lon": 18.75366
	},
	"country": "PL",
	"id": 3098218,
	"name": "Grudziadz"
  },
  {
	"coord": {
	  "lat": 53.566212,
	  "lon": 15.78717
	},
	"country": "PL",
	"id": 3099568,
	"name": "Gajewo"
  },
  {
	"coord": {
	  "lat": 53.699902,
	  "lon": 17.560101
	},
	"country": "PL",
	"id": 7532055,
	"name": "Chojnice"
  },
  {
	"coord": {
	  "lat": 53.695541,
	  "lon": 17.557011
	},
	"country": "PL",
	"id": 3101672,
	"name": "Chojnice"
  },
  {
	"coord": {
	  "lat": 53.833328,
	  "lon": 21.0
	},
	"country": "PL",
	"id": 858791,
	"name": "Województwo Warmińsko-Mazurskie"
  },
  {
	"coord": {
	  "lat": 54.006241,
	  "lon": 19.070801
	},
	"country": "PL",
	"id": 3093293,
	"name": "Lipki"
  },
  {
	"coord": {
	  "lat": 54.14505,
	  "lon": 18.3881
	},
	"country": "PL",
	"id": 3100041,
	"name": "Drzewina"
  },
  {
	"coord": {
	  "lat": 54.223331,
	  "lon": 17.476
	},
	"country": "PL",
	"id": 3098636,
	"name": "Gostkowo"
  },
  {
	"coord": {
	  "lat": 54.26667,
	  "lon": 18.66667
	},
	"country": "PL",
	"id": 3088045,
	"name": "Pruska Plebanka"
  },
  {
	"coord": {
	  "lat": 54.32687,
	  "lon": 18.086321
	},
	"country": "PL",
	"id": 7530789,
	"name": "Powiat kartuski"
  },
  {
	"coord": {
	  "lat": 54.39328,
	  "lon": 18.267179
	},
	"country": "PL",
	"id": 7531179,
	"name": "Przodkowo"
  },
  {
	"coord": {
	  "lat": 54.356159,
	  "lon": 18.30254
	},
	"country": "PL",
	"id": 3085361,
	"name": "Smołdzino"
  },
  {
	"coord": {
	  "lat": 52.029041,
	  "lon": 23.138309
	},
	"country": "PL",
	"id": 7530726,
	"name": "Biała Podlaska"
  },
  {
	"coord": {
	  "lat": 49.87698,
	  "lon": 21.749491
	},
	"country": "PL",
	"id": 7530782,
	"name": "Powiat strzyżowski"
  },
  {
	"coord": {
	  "lat": 52.384998,
	  "lon": 17.4058
	},
	"country": "PL",
	"id": 7533207,
	"name": "Nekla"
  },
  {
	"coord": {
	  "lat": 50.745579,
	  "lon": 22.41147
	},
	"country": "PL",
	"id": 7530739,
	"name": "Powiat janowski"
  },
  {
	"coord": {
	  "lat": 50.7006,
	  "lon": 22.413601
	},
	"country": "PL",
	"id": 7533529,
	"name": "Janów Lubelski"
  },
  {
	"coord": {
	  "lat": 51.372021,
	  "lon": 16.613991
	},
	"country": "PL",
	"id": 7530849,
	"name": "Powiat wołowski"
  },
  {
	"coord": {
	  "lat": 52.0555,
	  "lon": 20.4405
	},
	"country": "PL",
	"id": 7532743,
	"name": "Żyrardów"
  },
  {
	"coord": {
	  "lat": 53.746899,
	  "lon": 19.031111
	},
	"country": "PL",
	"id": 7530933,
	"name": "Powiat kwidzyński"
  },
  {
	"coord": {
	  "lat": 53.720501,
	  "lon": 18.945299
	},
	"country": "PL",
	"id": 7532624,
	"name": "Kwidzyn"
  },
  {
	"coord": {
	  "lat": 53.724949,
	  "lon": 18.931141
	},
	"country": "PL",
	"id": 3094086,
	"name": "Kwidzyn"
  },
  {
	"coord": {
	  "lat": 50.329239,
	  "lon": 19.104191
	},
	"country": "PL",
	"id": 3079850,
	"name": "Powiat będziński"
  },
  {
	"coord": {
	  "lat": 50.3358,
	  "lon": 19.123899
	},
	"country": "PL",
	"id": 7532923,
	"name": "Będzin"
  },
  {
	"coord": {
	  "lat": 50.362659,
	  "lon": 19.10557
	},
	"country": "PL",
	"id": 3098334,
	"name": "Gródków"
  },
  {
	"coord": {
	  "lat": 50.347542,
	  "lon": 19.072269
	},
	"country": "PL",
	"id": 3098306,
	"name": "Grodziec"
  },
  {
	"coord": {
	  "lat": 50.656761,
	  "lon": 20.18655
	},
	"country": "PL",
	"id": 7531038,
	"name": "Powiat jędrzejowski"
  },
  {
	"coord": {
	  "lat": 50.6395,
	  "lon": 20.289301
	},
	"country": "PL",
	"id": 7533465,
	"name": "Jędrzejów"
  },
  {
	"coord": {
	  "lat": 50.63945,
	  "lon": 20.304541
	},
	"country": "PL",
	"id": 770157,
	"name": "Jedrzejow"
  },
  {
	"coord": {
	  "lat": 50.14846,
	  "lon": 17.832661
	},
	"country": "PL",
	"id": 7531046,
	"name": "Powiat głubczycki"
  },
  {
	"coord": {
	  "lat": 50.056461,
	  "lon": 17.814251
	},
	"country": "PL",
	"id": 7531262,
	"name": "Branice"
  },
  {
	"coord": {
	  "lat": 50.051079,
	  "lon": 17.793989
	},
	"country": "PL",
	"id": 3102679,
	"name": "Branice"
  },
  {
	"coord": {
	  "lat": 53.41708,
	  "lon": 14.52242
	},
	"country": "PL",
	"id": 7287839,
	"name": "Cmentarz Centralny"
  },
  {
	"coord": {
	  "lat": 52.245739,
	  "lon": 20.94903
	},
	"country": "PL",
	"id": 768780,
	"name": "Koło"
  },
  {
	"coord": {
	  "lat": 52.27993,
	  "lon": 20.96874
	},
	"country": "PL",
	"id": 765159,
	"name": "Marymont"
  },
  {
	"coord": {
	  "lat": 52.438332,
	  "lon": 16.795361
	},
	"country": "PL",
	"id": 3094374,
	"name": "Krzyżowniki"
  },
  {
	"coord": {
	  "lat": 49.551319,
	  "lon": 20.730009
	},
	"country": "PL",
	"id": 7530824,
	"name": "Powiat nowosądecki"
  },
  {
	"coord": {
	  "lat": 49.354542,
	  "lon": 20.895651
	},
	"country": "PL",
	"id": 7533472,
	"name": "Muszyna"
  },
  {
	"coord": {
	  "lat": 49.356609,
	  "lon": 20.897181
	},
	"country": "PL",
	"id": 764241,
	"name": "Muszyna"
  },
  {
	"coord": {
	  "lat": 50.392818,
	  "lon": 18.79744
	},
	"country": "PL",
	"id": 3098794,
	"name": "Górniki"
  },
  {
	"coord": {
	  "lat": 50.369179,
	  "lon": 18.793261
	},
	"country": "PL",
	"id": 3087033,
	"name": "Rokitnica"
  },
  {
	"coord": {
	  "lat": 51.309811,
	  "lon": 22.131519
	},
	"country": "PL",
	"id": 760462,
	"name": "Rogalów"
  },
  {
	"coord": {
	  "lat": 50.309681,
	  "lon": 19.57732
	},
	"country": "PL",
	"id": 3103063,
	"name": "Bogucin Mały"
  },
  {
	"coord": {
	  "lat": 49.597198,
	  "lon": 20.564501
	},
	"country": "PL",
	"id": 7532747,
	"name": "Podegrodzie"
  },
  {
	"coord": {
	  "lat": 49.567478,
	  "lon": 20.521259
	},
	"country": "PL",
	"id": 763245,
	"name": "Olszana"
  },
  {
	"coord": {
	  "lat": 51.162971,
	  "lon": 15.07863
	},
	"country": "PL",
	"id": 7530852,
	"name": "Powiat zgorzelecki"
  },
  {
	"coord": {
	  "lat": 50.922298,
	  "lon": 14.9386
	},
	"country": "PL",
	"id": 7533031,
	"name": "Bogatynia"
  },
  {
	"coord": {
	  "lat": 51.02034,
	  "lon": 14.95042
	},
	"country": "PL",
	"id": 3094480,
	"name": "Krzewina"
  },
  {
	"coord": {
	  "lat": 50.947071,
	  "lon": 14.89969
	},
	"country": "PL",
	"id": 3083173,
	"name": "Trzciniec Dolny"
  },
  {
	"coord": {
	  "lat": 53.17083,
	  "lon": 14.41694
	},
	"country": "PL",
	"id": 3092238,
	"name": "Marwice"
  },
  {
	"coord": {
	  "lat": 52.173828,
	  "lon": 20.81978
	},
	"country": "PL",
	"id": 756507,
	"name": "Tworki"
  },
  {
	"coord": {
	  "lat": 52.229771,
	  "lon": 21.01178
	},
	"country": "PL",
	"id": 756135,
	"name": "Warsaw"
  },
  {
	"coord": {
	  "lat": 52.243679,
	  "lon": 20.99021
	},
	"country": "PL",
	"id": 764255,
	"name": "Muranów"
  },
  {
	"coord": {
	  "lat": 52.423321,
	  "lon": 16.97394
	},
	"country": "PL",
	"id": 3099184,
	"name": "Główna"
  },
  {
	"coord": {
	  "lat": 54.361118,
	  "lon": 18.68976
	},
	"country": "PL",
	"id": 7531002,
	"name": "Gdańsk"
  },
  {
	"coord": {
	  "lat": 54.361099,
	  "lon": 18.689699
	},
	"country": "PL",
	"id": 7531890,
	"name": "Gdańsk"
  },
  {
	"coord": {
	  "lat": 54.352051,
	  "lon": 18.64637
	},
	"country": "PL",
	"id": 3099434,
	"name": "Gdansk"
  },
  {
	"coord": {
	  "lat": 50.005451,
	  "lon": 21.98848
	},
	"country": "PL",
	"id": 7530819,
	"name": "Rzeszów"
  },
  {
	"coord": {
	  "lat": 50.005402,
	  "lon": 21.9884
	},
	"country": "PL",
	"id": 7532474,
	"name": "Rzeszów"
  },
  {
	"coord": {
	  "lat": 50.041321,
	  "lon": 21.99901
	},
	"country": "PL",
	"id": 759734,
	"name": "Rzeszow"
  },
  {
	"coord": {
	  "lat": 49.66452,
	  "lon": 21.168421
	},
	"country": "PL",
	"id": 6690153,
	"name": "Powiat gorlicki"
  },
  {
	"coord": {
	  "lat": 49.666302,
	  "lon": 21.165899
	},
	"country": "PL",
	"id": 7532785,
	"name": "Gorlice"
  },
  {
	"coord": {
	  "lat": 49.655628,
	  "lon": 21.160351
	},
	"country": "PL",
	"id": 771804,
	"name": "Gorlice"
  },
  {
	"coord": {
	  "lat": 50.116669,
	  "lon": 18.533331
	},
	"country": "PL",
	"id": 3089966,
	"name": "Orzepowice"
  },
  {
	"coord": {
	  "lat": 49.72628,
	  "lon": 18.79147
	},
	"country": "PL",
	"id": 7530808,
	"name": "Powiat cieszyński"
  },
  {
	"coord": {
	  "lat": 49.718601,
	  "lon": 18.831301
	},
	"country": "PL",
	"id": 7531846,
	"name": "Ustroń"
  },
  {
	"coord": {
	  "lat": 49.721531,
	  "lon": 18.801979
	},
	"country": "PL",
	"id": 3082751,
	"name": "Ustron"
  },
  {
	"coord": {
	  "lat": 49.812038,
	  "lon": 19.03899
	},
	"country": "PL",
	"id": 7530791,
	"name": "Bielsko-Biała"
  },
  {
	"coord": {
	  "lat": 49.812,
	  "lon": 19.0389
	},
	"country": "PL",
	"id": 7532925,
	"name": "Bielsko-Biała"
  },
  {
	"coord": {
	  "lat": 49.822449,
	  "lon": 19.04686
	},
	"country": "PL",
	"id": 3103402,
	"name": "Bielsko-Biala"
  },
  {
	"coord": {
	  "lat": 50.434879,
	  "lon": 16.661449
	},
	"country": "PL",
	"id": 3096053,
	"name": "Klodzko"
  },
  {
	"coord": {
	  "lat": 50.083328,
	  "lon": 19.91667
	},
	"country": "PL",
	"id": 3094802,
	"name": "Krakow"
  },
  {
	"coord": {
	  "lat": 50.015461,
	  "lon": 20.978571
	},
	"country": "PL",
	"id": 6690163,
	"name": "Powiat tarnowski"
  },
  {
	"coord": {
	  "lat": 50.017559,
	  "lon": 20.986629
	},
	"country": "PL",
	"id": 7532542,
	"name": "Tarnów"
  },
  {
	"coord": {
	  "lat": 50.013809,
	  "lon": 20.98698
	},
	"country": "PL",
	"id": 757026,
	"name": "Tarnow"
  },
  {
	"coord": {
	  "lat": 51.844082,
	  "lon": 16.57593
	},
	"country": "PL",
	"id": 7530993,
	"name": "Leszno"
  },
  {
	"coord": {
	  "lat": 51.844002,
	  "lon": 16.575899
	},
	"country": "PL",
	"id": 7532770,
	"name": "Leszno"
  },
  {
	"coord": {
	  "lat": 51.84034,
	  "lon": 16.57494
	},
	"country": "PL",
	"id": 3093524,
	"name": "Leszno"
  },
  {
	"coord": {
	  "lat": 53.013748,
	  "lon": 18.598141
	},
	"country": "PL",
	"id": 3083271,
	"name": "Torun"
  },
  {
	"coord": {
	  "lat": 53.033329,
	  "lon": 18.6
	},
	"country": "PL",
	"id": 3083267,
	"name": "Toruń Północny"
  },
  {
	"coord": {
	  "lat": 54.152199,
	  "lon": 19.40884
	},
	"country": "PL",
	"id": 3099759,
	"name": "Elblag"
  },
  {
	"coord": {
	  "lat": 52.10611,
	  "lon": 19.194981
	},
	"country": "PL",
	"id": 7531017,
	"name": "Powiat łęczycki"
  },
  {
	"coord": {
	  "lat": 50.271042,
	  "lon": 19.028669
	},
	"country": "PL",
	"id": 3095030,
	"name": "Koszutka"
  },
  {
	"coord": {
	  "lat": 52.237991,
	  "lon": 15.48522
	},
	"country": "PL",
	"id": 7530988,
	"name": "Powiat świebodziński"
  },
  {
	"coord": {
	  "lat": 52.73679,
	  "lon": 15.22878
	},
	"country": "PL",
	"id": 3098722,
	"name": "Gorzow Wielkopolski"
  },
  {
	"coord": {
	  "lat": 53.02256,
	  "lon": 22.285049
	},
	"country": "PL",
	"id": 7530828,
	"name": "Powiat zambrowski"
  },
  {
	"coord": {
	  "lat": 53.120998,
	  "lon": 22.438101
	},
	"country": "PL",
	"id": 7532422,
	"name": "Rutki"
  },
  {
	"coord": {
	  "lat": 53.099998,
	  "lon": 22.433331
	},
	"country": "PL",
	"id": 759946,
	"name": "Rutki"
  },
  {
	"coord": {
	  "lat": 53.391861,
	  "lon": 21.93631
	},
	"country": "PL",
	"id": 7530826,
	"name": "Powiat kolneński"
  },
  {
	"coord": {
	  "lat": 53.401798,
	  "lon": 21.9361
	},
	"country": "PL",
	"id": 7532707,
	"name": "Kolno"
  },
  {
	"coord": {
	  "lat": 53.41148,
	  "lon": 21.92905
	},
	"country": "PL",
	"id": 768785,
	"name": "Kolno"
  },
  {
	"coord": {
	  "lat": 51.25,
	  "lon": 22.566669
	},
	"country": "PL",
	"id": 765876,
	"name": "Lublin"
  },
  {
	"coord": {
	  "lat": 51.25,
	  "lon": 22.566669
	},
	"country": "PL",
	"id": 759993,
	"name": "Rury Jezuickie"
  },
  {
	"coord": {
	  "lat": 53.113602,
	  "lon": 20.9394
	},
	"country": "PL",
	"id": 7530886,
	"name": "Powiat przasnyski"
  },
  {
	"coord": {
	  "lat": 53.01907,
	  "lon": 20.880289
	},
	"country": "PL",
	"id": 761218,
	"name": "Przasnysz"
  },
  {
	"coord": {
	  "lat": 50.301159,
	  "lon": 18.64983
	},
	"country": "PL",
	"id": 7530857,
	"name": "Gliwice"
  },
  {
	"coord": {
	  "lat": 50.301102,
	  "lon": 18.649799
	},
	"country": "PL",
	"id": 7532030,
	"name": "Gliwice"
  },
  {
	"coord": {
	  "lat": 50.297611,
	  "lon": 18.67658
	},
	"country": "PL",
	"id": 3099230,
	"name": "Gliwice"
  },
  {
	"coord": {
	  "lat": 51.204731,
	  "lon": 16.15834
	},
	"country": "PL",
	"id": 7530968,
	"name": "Legnica"
  },
  {
	"coord": {
	  "lat": 51.2047,
	  "lon": 16.1583
	},
	"country": "PL",
	"id": 7532013,
	"name": "Legnica"
  },
  {
	"coord": {
	  "lat": 51.21006,
	  "lon": 16.1619
	},
	"country": "PL",
	"id": 3093692,
	"name": "Legnica"
  },
  {
	"coord": {
	  "lat": 53.541759,
	  "lon": 21.070339
	},
	"country": "PL",
	"id": 7530803,
	"name": "Powiat szczycieński"
  },
  {
	"coord": {
	  "lat": 53.546398,
	  "lon": 21.033001
	},
	"country": "PL",
	"id": 7532078,
	"name": "Szczytno"
  },
  {
	"coord": {
	  "lat": 53.562592,
	  "lon": 20.987471
	},
	"country": "PL",
	"id": 757357,
	"name": "Szczytno"
  },
  {
	"coord": {
	  "lat": 54.200001,
	  "lon": 16.183331
	},
	"country": "PL",
	"id": 3091804,
	"name": "Miłakowo"
  },
  {
	"coord": {
	  "lat": 50.84,
	  "lon": 20.682671
	},
	"country": "PL",
	"id": 764494,
	"name": "Mojcza"
  },
  {
	"coord": {
	  "lat": 53.141621,
	  "lon": 17.96105
	},
	"country": "PL",
	"id": 3100894,
	"name": "Czyżkówko"
  },
  {
	"coord": {
	  "lat": 53.150002,
	  "lon": 17.98333
	},
	"country": "PL",
	"id": 3092750,
	"name": "Ludwikowo"
  },
  {
	"coord": {
	  "lat": 54.51889,
	  "lon": 18.531879
	},
	"country": "PL",
	"id": 3099424,
	"name": "Gdynia"
  },
  {
	"coord": {
	  "lat": 54.5,
	  "lon": 18.549999
	},
	"country": "PL",
	"id": 3230651,
	"name": "Wzgórze Nowotki"
  },
  {
	"coord": {
	  "lat": 53.779949,
	  "lon": 20.49416
	},
	"country": "PL",
	"id": 763166,
	"name": "Olsztyn"
  },
  {
	"coord": {
	  "lat": 52.535419,
	  "lon": 19.71497
	},
	"country": "PL",
	"id": 7530939,
	"name": "Płock"
  },
  {
	"coord": {
	  "lat": 52.5354,
	  "lon": 19.714899
	},
	"country": "PL",
	"id": 7532723,
	"name": "Płock"
  },
  {
	"coord": {
	  "lat": 52.546822,
	  "lon": 19.706381
	},
	"country": "PL",
	"id": 3088825,
	"name": "Plock"
  },
  {
	"coord": {
	  "lat": 50.666672,
	  "lon": 17.950001
	},
	"country": "PL",
	"id": 3090048,
	"name": "Opole"
  },
  {
	"coord": {
	  "lat": 53.42894,
	  "lon": 14.55302
	},
	"country": "PL",
	"id": 3083829,
	"name": "Szczecin"
  },
  {
	"coord": {
	  "lat": 53.13353,
	  "lon": 23.075291
	},
	"country": "PL",
	"id": 758309,
	"name": "Starosielce"
  },
  {
	"coord": {
	  "lat": 52.256222,
	  "lon": 18.26219
	},
	"country": "PL",
	"id": 7530963,
	"name": "Konin"
  },
  {
	"coord": {
	  "lat": 52.256199,
	  "lon": 18.2621
	},
	"country": "PL",
	"id": 7532374,
	"name": "Konin"
  },
  {
	"coord": {
	  "lat": 52.223381,
	  "lon": 18.251209
	},
	"country": "PL",
	"id": 3095321,
	"name": "Konin"
  },
  {
	"coord": {
	  "lat": 51.607979,
	  "lon": 17.8503
	},
	"country": "PL",
	"id": 7531043,
	"name": "Powiat ostrowski"
  },
  {
	"coord": {
	  "lat": 51.6469,
	  "lon": 17.8039
	},
	"country": "PL",
	"id": 7532713,
	"name": "Ostrów Wielkopolski"
  },
  {
	"coord": {
	  "lat": 51.65501,
	  "lon": 17.80686
	},
	"country": "PL",
	"id": 3089684,
	"name": "Ostrow Wielkopolski"
  },
  {
	"coord": {
	  "lat": 50.151329,
	  "lon": 18.836889
	},
	"country": "PL",
	"id": 7530809,
	"name": "Powiat mikołowski"
  },
  {
	"coord": {
	  "lat": 50.143398,
	  "lon": 18.8528
	},
	"country": "PL",
	"id": 7532266,
	"name": "Łaziska Górne"
  },
  {
	"coord": {
	  "lat": 50.149521,
	  "lon": 18.84215
	},
	"country": "PL",
	"id": 3093785,
	"name": "Laziska Gorne"
  },
  {
	"coord": {
	  "lat": 50.809639,
	  "lon": 19.122169
	},
	"country": "PL",
	"id": 7530964,
	"name": "Częstochowa"
  },
  {
	"coord": {
	  "lat": 50.809601,
	  "lon": 19.122101
	},
	"country": "PL",
	"id": 7532537,
	"name": "Częstochowa"
  },
  {
	"coord": {
	  "lat": 50.796459,
	  "lon": 19.12409
	},
	"country": "PL",
	"id": 3100946,
	"name": "Czestochowa"
  },
  {
	"coord": {
	  "lat": 53.738361,
	  "lon": 18.906281
	},
	"country": "PL",
	"id": 3092313,
	"name": "Mareza"
  },
  {
	"coord": {
	  "lat": 49.805962,
	  "lon": 19.071739
	},
	"country": "PL",
	"id": 7531032,
	"name": "Powiat bielski"
  },
  {
	"coord": {
	  "lat": 49.903999,
	  "lon": 19.000401
	},
	"country": "PL",
	"id": 7533112,
	"name": "Czechowice-Dziedzice"
  },
  {
	"coord": {
	  "lat": 49.913422,
	  "lon": 19.004789
	},
	"country": "PL",
	"id": 3101076,
	"name": "Czechowice-Dziedzice"
  },
  {
	"coord": {
	  "lat": 52.35408,
	  "lon": 20.90514
	},
	"country": "PL",
	"id": 766041,
	"name": "Łomianki Dolne"
  },
  {
	"coord": {
	  "lat": 50.569939,
	  "lon": 22.072769
	},
	"country": "PL",
	"id": 762071,
	"name": "Pławo"
  },
  {
	"coord": {
	  "lat": 50.878868,
	  "lon": 18.460369
	},
	"country": "PL",
	"id": 7530762,
	"name": "Powiat oleski"
  },
  {
	"coord": {
	  "lat": 51.048302,
	  "lon": 18.4529
	},
	"country": "PL",
	"id": 7533314,
	"name": "Praszka"
  },
  {
	"coord": {
	  "lat": 51.053749,
	  "lon": 18.453171
	},
	"country": "PL",
	"id": 3088135,
	"name": "Praszka"
  },
  {
	"coord": {
	  "lat": 52.349998,
	  "lon": 21.25
	},
	"country": "PL",
	"id": 758967,
	"name": "Sławek"
  },
  {
	"coord": {
	  "lat": 50.293839,
	  "lon": 18.169609
	},
	"country": "PL",
	"id": 7531048,
	"name": "Powiat kędzierzyńsko-kozielski"
  },
  {
	"coord": {
	  "lat": 50.345329,
	  "lon": 18.245529
	},
	"country": "PL",
	"id": 7531299,
	"name": "Kędzierzyn-Koźle"
  },
  {
	"coord": {
	  "lat": 50.349838,
	  "lon": 18.226061
	},
	"country": "PL",
	"id": 3096372,
	"name": "Kedzierzyn-Kozle"
  },
  {
	"coord": {
	  "lat": 49.833939,
	  "lon": 19.94482
	},
	"country": "PL",
	"id": 6690156,
	"name": "Powiat myślenicki"
  },
  {
	"coord": {
	  "lat": 49.833549,
	  "lon": 19.943621
	},
	"country": "PL",
	"id": 7533117,
	"name": "Myślenice"
  },
  {
	"coord": {
	  "lat": 49.833832,
	  "lon": 19.938299
	},
	"country": "PL",
	"id": 3091256,
	"name": "Myslenice"
  },
  {
	"coord": {
	  "lat": 54.460602,
	  "lon": 17.02787
	},
	"country": "PL",
	"id": 7530942,
	"name": "Słupsk"
  },
  {
	"coord": {
	  "lat": 54.460499,
	  "lon": 17.0278
	},
	"country": "PL",
	"id": 7532359,
	"name": "Słupsk"
  },
  {
	"coord": {
	  "lat": 54.46405,
	  "lon": 17.028721
	},
	"country": "PL",
	"id": 3085450,
	"name": "Slupsk"
  },
  {
	"coord": {
	  "lat": 51.628578,
	  "lon": 14.9617
	},
	"country": "PL",
	"id": 7530731,
	"name": "Powiat żarski"
  },
  {
	"coord": {
	  "lat": 51.6245,
	  "lon": 15.1455
	},
	"country": "PL",
	"id": 7532206,
	"name": "Żary"
  },
  {
	"coord": {
	  "lat": 51.642052,
	  "lon": 15.13727
	},
	"country": "PL",
	"id": 3080644,
	"name": "Zary"
  },
  {
	"coord": {
	  "lat": 50.314121,
	  "lon": 18.79656
	},
	"country": "PL",
	"id": 7530952,
	"name": "Zabrze"
  },
  {
	"coord": {
	  "lat": 50.314121,
	  "lon": 18.79656
	},
	"country": "PL",
	"id": 7531590,
	"name": "Zabrze"
  },
  {
	"coord": {
	  "lat": 50.324921,
	  "lon": 18.785761
	},
	"country": "PL",
	"id": 3080985,
	"name": "Zabrze"
  },
  {
	"coord": {
	  "lat": 49.304199,
	  "lon": 19.948
	},
	"country": "PL",
	"id": 6690164,
	"name": "Powiat tatrzański"
  },
  {
	"coord": {
	  "lat": 49.275761,
	  "lon": 19.971861
	},
	"country": "PL",
	"id": 7531513,
	"name": "Zakopane"
  },
  {
	"coord": {
	  "lat": 49.298988,
	  "lon": 19.948851
	},
	"country": "PL",
	"id": 3080866,
	"name": "Zakopane"
  },
  {
	"coord": {
	  "lat": 50.850159,
	  "lon": 15.72796
	},
	"country": "PL",
	"id": 7530796,
	"name": "Jelenia Góra"
  },
  {
	"coord": {
	  "lat": 50.900871,
	  "lon": 15.72693
	},
	"country": "PL",
	"id": 7531868,
	"name": "Jelenia Góra"
  },
  {
	"coord": {
	  "lat": 50.899731,
	  "lon": 15.72899
	},
	"country": "PL",
	"id": 3097257,
	"name": "Jelenia Gora"
  },
  {
	"coord": {
	  "lat": 49.969109,
	  "lon": 20.43078
	},
	"country": "PL",
	"id": 6690149,
	"name": "Powiat bocheński"
  },
  {
	"coord": {
	  "lat": 49.974701,
	  "lon": 20.429199
	},
	"country": "PL",
	"id": 7532635,
	"name": "Bochnia"
  },
  {
	"coord": {
	  "lat": 49.969051,
	  "lon": 20.430281
	},
	"country": "PL",
	"id": 775758,
	"name": "Bochnia"
  },
  {
	"coord": {
	  "lat": 50.08659,
	  "lon": 22.268921
	},
	"country": "PL",
	"id": 7530777,
	"name": "Powiat łańcucki"
  },
  {
	"coord": {
	  "lat": 50.069698,
	  "lon": 22.224569
	},
	"country": "PL",
	"id": 7531339,
	"name": "Łańcut"
  },
  {
	"coord": {
	  "lat": 50.06871,
	  "lon": 22.22912
	},
	"country": "PL",
	"id": 766810,
	"name": "Lancut"
  },
  {
	"coord": {
	  "lat": 52.10627,
	  "lon": 19.94606
	},
	"country": "PL",
	"id": 6941021,
	"name": "powiat Łowicki"
  },
  {
	"coord": {
	  "lat": 52.10614,
	  "lon": 19.944651
	},
	"country": "PL",
	"id": 6941022,
	"name": "gmina Miasto Łowicz"
  },
  {
	"coord": {
	  "lat": 52.10714,
	  "lon": 19.94525
	},
	"country": "PL",
	"id": 3093066,
	"name": "Lowicz"
  },
  {
	"coord": {
	  "lat": 54.441849,
	  "lon": 18.547819
	},
	"country": "PL",
	"id": 7530820,
	"name": "Sopot"
  },
  {
	"coord": {
	  "lat": 54.441849,
	  "lon": 18.547819
	},
	"country": "PL",
	"id": 7531444,
	"name": "Sopot"
  },
  {
	"coord": {
	  "lat": 54.441799,
	  "lon": 18.56003
	},
	"country": "PL",
	"id": 3085151,
	"name": "Sopot"
  },
  {
	"coord": {
	  "lat": 52.551819,
	  "lon": 17.60885
	},
	"country": "PL",
	"id": 3081909,
	"name": "Winiary"
  },
  {
	"coord": {
	  "lat": 50.833328,
	  "lon": 23.183331
	},
	"country": "PL",
	"id": 753865,
	"name": "Zamość"
  },
  {
	"coord": {
	  "lat": 51.416672,
	  "lon": 21.15
	},
	"country": "PL",
	"id": 763471,
	"name": "Obozisko"
  },
  {
	"coord": {
	  "lat": 54.102718,
	  "lon": 22.92914
	},
	"country": "PL",
	"id": 7530941,
	"name": "Suwałki"
  },
  {
	"coord": {
	  "lat": 54.102718,
	  "lon": 22.92914
	},
	"country": "PL",
	"id": 7531587,
	"name": "Suwałki"
  },
  {
	"coord": {
	  "lat": 54.111752,
	  "lon": 22.93087
	},
	"country": "PL",
	"id": 757718,
	"name": "Suwalki"
  },
  {
	"coord": {
	  "lat": 52.029041,
	  "lon": 23.138309
	},
	"country": "PL",
	"id": 7531194,
	"name": "Biała Podlaska"
  },
  {
	"coord": {
	  "lat": 52.032379,
	  "lon": 23.11652
	},
	"country": "PL",
	"id": 776175,
	"name": "Biala Podlaska"
  },
  {
	"coord": {
	  "lat": 49.689251,
	  "lon": 21.753019
	},
	"country": "PL",
	"id": 7530976,
	"name": "Krosno"
  },
  {
	"coord": {
	  "lat": 49.689201,
	  "lon": 21.753
	},
	"country": "PL",
	"id": 7532430,
	"name": "Krosno"
  },
  {
	"coord": {
	  "lat": 49.68866,
	  "lon": 21.77058
	},
	"country": "PL",
	"id": 767470,
	"name": "Krosno"
  },
  {
	"coord": {
	  "lat": 50.371029,
	  "lon": 19.32131
	},
	"country": "PL",
	"id": 7530746,
	"name": "Dąbrowa Górnicza"
  },
  {
	"coord": {
	  "lat": 50.370998,
	  "lon": 19.321301
	},
	"country": "PL",
	"id": 7532331,
	"name": "Dąbrowa Górnicza"
  },
  {
	"coord": {
	  "lat": 50.346008,
	  "lon": 19.21406
	},
	"country": "PL",
	"id": 3093646,
	"name": "Łęknice"
  },
  {
	"coord": {
	  "lat": 51.937679,
	  "lon": 15.51216
	},
	"country": "PL",
	"id": 7530991,
	"name": "Zielona Góra"
  },
  {
	"coord": {
	  "lat": 51.937599,
	  "lon": 15.5121
	},
	"country": "PL",
	"id": 7532225,
	"name": "Zielona Góra"
  },
  {
	"coord": {
	  "lat": 51.935478,
	  "lon": 15.50643
	},
	"country": "PL",
	"id": 3080165,
	"name": "Zielona Gora"
  },
  {
	"coord": {
	  "lat": 51.321739,
	  "lon": 15.53215
	},
	"country": "PL",
	"id": 7530804,
	"name": "Powiat bolesławiecki"
  },
  {
	"coord": {
	  "lat": 51.321499,
	  "lon": 15.5488
	},
	"country": "PL",
	"id": 7532649,
	"name": "Bolesławiec"
  },
  {
	"coord": {
	  "lat": 51.264179,
	  "lon": 15.5697
	},
	"country": "PL",
	"id": 3102987,
	"name": "Boleslawiec"
  },
  {
	"coord": {
	  "lat": 49.853802,
	  "lon": 19.339199
	},
	"country": "PL",
	"id": 7533538,
	"name": "Andrychów"
  },
  {
	"coord": {
	  "lat": 49.854969,
	  "lon": 19.338341
	},
	"country": "PL",
	"id": 3104115,
	"name": "Andrychow"
  },
  {
	"coord": {
	  "lat": 52.165588,
	  "lon": 22.297779
	},
	"country": "PL",
	"id": 756349,
	"name": "Ulica Starowiejska"
  },
  {
	"coord": {
	  "lat": 50.313869,
	  "lon": 21.391359
	},
	"country": "PL",
	"id": 7530771,
	"name": "Powiat mielecki"
  },
  {
	"coord": {
	  "lat": 50.257301,
	  "lon": 21.564699
	},
	"country": "PL",
	"id": 7531899,
	"name": "Mielec"
  },
  {
	"coord": {
	  "lat": 50.28709,
	  "lon": 21.423901
	},
	"country": "PL",
	"id": 764849,
	"name": "Mielec"
  },
  {
	"coord": {
	  "lat": 54.050129,
	  "lon": 15.61394
	},
	"country": "PL",
	"id": 7530843,
	"name": "Powiat kołobrzeski"
  },
  {
	"coord": {
	  "lat": 54.129101,
	  "lon": 15.514
	},
	"country": "PL",
	"id": 7531681,
	"name": "Kołobrzeg"
  },
  {
	"coord": {
	  "lat": 54.175652,
	  "lon": 15.58342
	},
	"country": "PL",
	"id": 3095795,
	"name": "Kolobrzeg"
  },
  {
	"coord": {
	  "lat": 53.282669,
	  "lon": 18.926491
	},
	"country": "PL",
	"id": 7530920,
	"name": "Powiat wąbrzeski"
  },
  {
	"coord": {
	  "lat": 53.278358,
	  "lon": 18.952391
	},
	"country": "PL",
	"id": 7531618,
	"name": "Wąbrzeźno"
  },
  {
	"coord": {
	  "lat": 53.279888,
	  "lon": 18.947729
	},
	"country": "PL",
	"id": 3082734,
	"name": "Wabrzezno"
  },
  {
	"coord": {
	  "lat": 50.349998,
	  "lon": 18.966669
	},
	"country": "PL",
	"id": 3103524,
	"name": "Biały Szarlej"
  },
  {
	"coord": {
	  "lat": 50.140362,
	  "lon": 18.99192
	},
	"country": "PL",
	"id": 3100911,
	"name": "Czułów"
  },
  {
	"coord": {
	  "lat": 52.902069,
	  "lon": 20.576309
	},
	"country": "PL",
	"id": 7530924,
	"name": "Powiat ciechanowski"
  },
  {
	"coord": {
	  "lat": 52.870998,
	  "lon": 20.614799
	},
	"country": "PL",
	"id": 7531644,
	"name": "Ciechanów"
  },
  {
	"coord": {
	  "lat": 52.881409,
	  "lon": 20.619961
	},
	"country": "PL",
	"id": 774208,
	"name": "Ciechanow"
  },
  {
	"coord": {
	  "lat": 54.15691,
	  "lon": 17.29147
	},
	"country": "PL",
	"id": 7531015,
	"name": "Powiat bytowski"
  },
  {
	"coord": {
	  "lat": 54.179699,
	  "lon": 17.500601
	},
	"country": "PL",
	"id": 7533199,
	"name": "Bytów"
  },
  {
	"coord": {
	  "lat": 54.17057,
	  "lon": 17.491871
	},
	"country": "PL",
	"id": 3101943,
	"name": "Bytow"
  },
  {
	"coord": {
	  "lat": 50.27932,
	  "lon": 19.55772
	},
	"country": "PL",
	"id": 6690159,
	"name": "Powiat olkuski"
  },
  {
	"coord": {
	  "lat": 50.285801,
	  "lon": 19.561701
	},
	"country": "PL",
	"id": 7533287,
	"name": "Olkusz"
  },
  {
	"coord": {
	  "lat": 50.2813,
	  "lon": 19.565029
	},
	"country": "PL",
	"id": 3090146,
	"name": "Olkusz"
  },
  {
	"coord": {
	  "lat": 53.20829,
	  "lon": 22.060329
	},
	"country": "PL",
	"id": 7530827,
	"name": "Powiat łomżyński"
  },
  {
	"coord": {
	  "lat": 53.196571,
	  "lon": 22.095909
	},
	"country": "PL",
	"id": 762366,
	"name": "Piatnica"
  },
  {
	"coord": {
	  "lat": 49.884201,
	  "lon": 19.495399
	},
	"country": "PL",
	"id": 7533264,
	"name": "Wadowice"
  },
  {
	"coord": {
	  "lat": 49.88335,
	  "lon": 19.49292
	},
	"country": "PL",
	"id": 3082722,
	"name": "Wadowice"
  },
  {
	"coord": {
	  "lat": 51.13419,
	  "lon": 22.466539
	},
	"country": "PL",
	"id": 7530743,
	"name": "Powiat lubelski"
  },
  {
	"coord": {
	  "lat": 51.28072,
	  "lon": 22.684349
	},
	"country": "PL",
	"id": 7531398,
	"name": "Wólka"
  },
  {
	"coord": {
	  "lat": 51.256008,
	  "lon": 22.6805
	},
	"country": "PL",
	"id": 757690,
	"name": "Świdnik Mały"
  },
  {
	"coord": {
	  "lat": 51.60297,
	  "lon": 18.60309
	},
	"country": "PL",
	"id": 7531009,
	"name": "Powiat sieradzki"
  },
  {
	"coord": {
	  "lat": 51.601719,
	  "lon": 18.7384
	},
	"country": "PL",
	"id": 7531129,
	"name": "Sieradz"
  },
  {
	"coord": {
	  "lat": 51.59584,
	  "lon": 18.73023
	},
	"country": "PL",
	"id": 3085978,
	"name": "Sieradz"
  },
  {
	"coord": {
	  "lat": 51.741741,
	  "lon": 17.421249
	},
	"country": "PL",
	"id": 7530902,
	"name": "Powiat krotoszyński"
  },
  {
	"coord": {
	  "lat": 51.695099,
	  "lon": 17.443701
	},
	"country": "PL",
	"id": 7533246,
	"name": "Krotoszyn"
  },
  {
	"coord": {
	  "lat": 51.698681,
	  "lon": 17.43738
	},
	"country": "PL",
	"id": 3094625,
	"name": "Krotoszyn"
  },
  {
	"coord": {
	  "lat": 50.757191,
	  "lon": 16.280251
	},
	"country": "PL",
	"id": 7530848,
	"name": "Powiat wałbrzyski"
  },
  {
	"coord": {
	  "lat": 50.785099,
	  "lon": 16.291201
	},
	"country": "PL",
	"id": 7532039,
	"name": "Wałbrzych"
  },
  {
	"coord": {
	  "lat": 49.971699,
	  "lon": 20.605721
	},
	"country": "PL",
	"id": 6690150,
	"name": "Powiat brzeski"
  },
  {
	"coord": {
	  "lat": 49.974499,
	  "lon": 20.610701
	},
	"country": "PL",
	"id": 7533116,
	"name": "Brzesko"
  },
  {
	"coord": {
	  "lat": 49.969109,
	  "lon": 20.60606
	},
	"country": "PL",
	"id": 775183,
	"name": "Brzesko"
  },
  {
	"coord": {
	  "lat": 49.950001,
	  "lon": 18.58333
	},
	"country": "PL",
	"id": 3097395,
	"name": "Jastrzębie Dolne"
  },
  {
	"coord": {
	  "lat": 50.02718,
	  "lon": 19.22105
	},
	"country": "PL",
	"id": 3084850,
	"name": "Stare Stawy"
  },
  {
	"coord": {
	  "lat": 50.735062,
	  "lon": 16.691919
	},
	"country": "PL",
	"id": 7530805,
	"name": "Powiat dzierżoniowski"
  },
  {
	"coord": {
	  "lat": 50.729179,
	  "lon": 16.64731
	},
	"country": "PL",
	"id": 7531351,
	"name": "Dzierżoniów"
  },
  {
	"coord": {
	  "lat": 50.728199,
	  "lon": 16.651409
	},
	"country": "PL",
	"id": 3099828,
	"name": "Dzierzoniow"
  },
  {
	"coord": {
	  "lat": 51.412949,
	  "lon": 19.716619
	},
	"country": "PL",
	"id": 7530745,
	"name": "Piotrków Trybunalski"
  },
  {
	"coord": {
	  "lat": 51.412899,
	  "lon": 19.7166
	},
	"country": "PL",
	"id": 7532758,
	"name": "Piotrków Trybunalski"
  },
  {
	"coord": {
	  "lat": 51.405472,
	  "lon": 19.703211
	},
	"country": "PL",
	"id": 3088972,
	"name": "Piotrkow Trybunalski"
  },
  {
	"coord": {
	  "lat": 51.677429,
	  "lon": 19.23782
	},
	"country": "PL",
	"id": 7531021,
	"name": "Powiat pabianicki"
  },
  {
	"coord": {
	  "lat": 51.665699,
	  "lon": 19.354799
	},
	"country": "PL",
	"id": 7532602,
	"name": "Pabianice"
  },
  {
	"coord": {
	  "lat": 51.664459,
	  "lon": 19.354731
	},
	"country": "PL",
	"id": 3089578,
	"name": "Pabianice"
  },
  {
	"coord": {
	  "lat": 49.59959,
	  "lon": 21.76943
	},
	"country": "PL",
	"id": 7530775,
	"name": "Powiat krośnieński"
  },
  {
	"coord": {
	  "lat": 49.716999,
	  "lon": 21.646999
	},
	"country": "PL",
	"id": 7533478,
	"name": "Jedlicze"
  },
  {
	"coord": {
	  "lat": 49.717491,
	  "lon": 21.648861
	},
	"country": "PL",
	"id": 770169,
	"name": "Jedlicze"
  },
  {
	"coord": {
	  "lat": 49.616669,
	  "lon": 19.966669
	},
	"country": "PL",
	"id": 3081025,
	"name": "Zabornia"
  },
  {
	"coord": {
	  "lat": 50.03796,
	  "lon": 19.227711
	},
	"country": "PL",
	"id": 6690160,
	"name": "Powiat oświęcimski"
  },
  {
	"coord": {
	  "lat": 49.879299,
	  "lon": 19.2097
	},
	"country": "PL",
	"id": 7533321,
	"name": "Kęty"
  },
  {
	"coord": {
	  "lat": 49.882141,
	  "lon": 19.22333
	},
	"country": "PL",
	"id": 3096328,
	"name": "Kety"
  },
  {
	"coord": {
	  "lat": 53.157532,
	  "lon": 16.91465
	},
	"country": "PL",
	"id": 7530945,
	"name": "Powiat pilski"
  },
  {
	"coord": {
	  "lat": 53.1348,
	  "lon": 16.760099
	},
	"country": "PL",
	"id": 7531697,
	"name": "Piła"
  },
  {
	"coord": {
	  "lat": 53.151451,
	  "lon": 16.73782
	},
	"country": "PL",
	"id": 3089033,
	"name": "Pila"
  },
  {
	"coord": {
	  "lat": 50.57304,
	  "lon": 21.679371
	},
	"country": "PL",
	"id": 757033,
	"name": "Tarnobrzeg"
  },
  {
	"coord": {
	  "lat": 53.315201,
	  "lon": 15.22684
	},
	"country": "PL",
	"id": 7530793,
	"name": "Powiat stargardzki"
  },
  {
	"coord": {
	  "lat": 53.308998,
	  "lon": 15.0116
	},
	"country": "PL",
	"id": 7531735,
	"name": "Stargard Szczeciński"
  },
  {
	"coord": {
	  "lat": 53.33672,
	  "lon": 15.0499
	},
	"country": "PL",
	"id": 3084840,
	"name": "Stargard Szczecinski"
  },
  {
	"coord": {
	  "lat": 49.476631,
	  "lon": 20.043051
	},
	"country": "PL",
	"id": 6690158,
	"name": "Powiat nowotarski"
  },
  {
	"coord": {
	  "lat": 49.489201,
	  "lon": 20.044201
	},
	"country": "PL",
	"id": 7532650,
	"name": "Nowy Targ"
  },
  {
	"coord": {
	  "lat": 49.477829,
	  "lon": 20.03228
	},
	"country": "PL",
	"id": 763523,
	"name": "Nowy Targ"
  },
  {
	"coord": {
	  "lat": 49.683331,
	  "lon": 19.23333
	},
	"country": "PL",
	"id": 3085075,
	"name": "Sporysz"
  },
  {
	"coord": {
	  "lat": 49.73333,
	  "lon": 19.6
	},
	"country": "PL",
	"id": 3090466,
	"name": "Nowy Świat"
  },
  {
	"coord": {
	  "lat": 50.362659,
	  "lon": 18.58107
	},
	"country": "PL",
	"id": 7531055,
	"name": "Powiat gliwicki"
  },
  {
	"coord": {
	  "lat": 50.207199,
	  "lon": 18.6628
	},
	"country": "PL",
	"id": 7531741,
	"name": "Knurów"
  },
  {
	"coord": {
	  "lat": 50.219711,
	  "lon": 18.650669
	},
	"country": "PL",
	"id": 3095971,
	"name": "Knurow"
  },
  {
	"coord": {
	  "lat": 50.271191,
	  "lon": 19.19463
	},
	"country": "PL",
	"id": 7530975,
	"name": "Sosnowiec"
  },
  {
	"coord": {
	  "lat": 50.271099,
	  "lon": 19.194599
	},
	"country": "PL",
	"id": 7532189,
	"name": "Sosnowiec"
  },
  {
	"coord": {
	  "lat": 50.310501,
	  "lon": 19.178181
	},
	"country": "PL",
	"id": 3097090,
	"name": "Józefów"
  },
  {
	"coord": {
	  "lat": 53.918949,
	  "lon": 18.71916
	},
	"country": "PL",
	"id": 7530935,
	"name": "Powiat tczewski"
  },
  {
	"coord": {
	  "lat": 54.090698,
	  "lon": 18.781601
	},
	"country": "PL",
	"id": 7532586,
	"name": "Tczew"
  },
  {
	"coord": {
	  "lat": 54.092419,
	  "lon": 18.77787
	},
	"country": "PL",
	"id": 3083426,
	"name": "Tczew"
  },
  {
	"coord": {
	  "lat": 53.97686,
	  "lon": 16.088551
	},
	"country": "PL",
	"id": 7530972,
	"name": "Powiat białogardzki"
  },
  {
	"coord": {
	  "lat": 54.014,
	  "lon": 15.9755
	},
	"country": "PL",
	"id": 7531670,
	"name": "Białogard"
  },
  {
	"coord": {
	  "lat": 54.006962,
	  "lon": 15.98751
	},
	"country": "PL",
	"id": 3103556,
	"name": "Bialogard"
  },
  {
	"coord": {
	  "lat": 52.666672,
	  "lon": 19.033331
	},
	"country": "PL",
	"id": 3080502,
	"name": "Zazamcze"
  },
  {
	"coord": {
	  "lat": 53.850201,
	  "lon": 14.31313
	},
	"country": "PL",
	"id": 7530749,
	"name": "Świnoujście"
  },
  {
	"coord": {
	  "lat": 53.850201,
	  "lon": 14.3131
	},
	"country": "PL",
	"id": 7532101,
	"name": "Świnoujście"
  },
  {
	"coord": {
	  "lat": 53.91053,
	  "lon": 14.24712
	},
	"country": "PL",
	"id": 3083955,
	"name": "Swinoujscie"
  },
  {
	"coord": {
	  "lat": 50.492859,
	  "lon": 18.94524
	},
	"country": "PL",
	"id": 3079876,
	"name": "Zyglinek"
  },
  {
	"coord": {
	  "lat": 50.502621,
	  "lon": 18.939489
	},
	"country": "PL",
	"id": 3092082,
	"name": "Miasteczko Slaskie"
  },
  {
	"coord": {
	  "lat": 50.28849,
	  "lon": 18.96283
	},
	"country": "PL",
	"id": 7530967,
	"name": "Chorzów"
  },
  {
	"coord": {
	  "lat": 50.288399,
	  "lon": 18.962799
	},
	"country": "PL",
	"id": 7531851,
	"name": "Chorzów"
  },
  {
	"coord": {
	  "lat": 50.30582,
	  "lon": 18.974199
	},
	"country": "PL",
	"id": 3101619,
	"name": "Chorzow"
  },
  {
	"coord": {
	  "lat": 50.316669,
	  "lon": 18.83333
	},
	"country": "PL",
	"id": 3083784,
	"name": "Szczęść Boże"
  },
  {
	"coord": {
	  "lat": 52.794949,
	  "lon": 22.032499
	},
	"country": "PL",
	"id": 7530882,
	"name": "Powiat ostrowski"
  },
  {
	"coord": {
	  "lat": 52.807098,
	  "lon": 21.891001
	},
	"country": "PL",
	"id": 7531958,
	"name": "Ostrów Mazowiecka"
  },
  {
	"coord": {
	  "lat": 52.802448,
	  "lon": 21.895069
	},
	"country": "PL",
	"id": 762850,
	"name": "Ostrow Mazowiecka"
  },
  {
	"coord": {
	  "lat": 49.430012,
	  "lon": 22.13619
	},
	"country": "PL",
	"id": 7530781,
	"name": "Powiat sanocki"
  },
  {
	"coord": {
	  "lat": 49.556541,
	  "lon": 22.2157
	},
	"country": "PL",
	"id": 7531370,
	"name": "Sanok"
  },
  {
	"coord": {
	  "lat": 49.555729,
	  "lon": 22.205601
	},
	"country": "PL",
	"id": 759591,
	"name": "Sanok"
  },
  {
	"coord": {
	  "lat": 49.983521,
	  "lon": 19.147449
	},
	"country": "PL",
	"id": 7533373,
	"name": "Brzeszcze"
  },
  {
	"coord": {
	  "lat": 49.982029,
	  "lon": 19.151569
	},
	"country": "PL",
	"id": 3102444,
	"name": "Brzeszcze"
  },
  {
	"coord": {
	  "lat": 51.662189,
	  "lon": 21.929291
	},
	"country": "PL",
	"id": 7530870,
	"name": "Powiat rycki"
  },
  {
	"coord": {
	  "lat": 51.6259,
	  "lon": 21.9263
	},
	"country": "PL",
	"id": 7533198,
	"name": "Ryki"
  },
  {
	"coord": {
	  "lat": 51.62574,
	  "lon": 21.932739
	},
	"country": "PL",
	"id": 759852,
	"name": "Ryki"
  },
  {
	"coord": {
	  "lat": 50.08696,
	  "lon": 18.269159
	},
	"country": "PL",
	"id": 7531054,
	"name": "Powiat raciborski"
  },
  {
	"coord": {
	  "lat": 50.090599,
	  "lon": 18.221701
	},
	"country": "PL",
	"id": 7532706,
	"name": "Racibórz"
  },
  {
	"coord": {
	  "lat": 50.091949,
	  "lon": 18.21928
	},
	"country": "PL",
	"id": 3087584,
	"name": "Raciborz"
  },
  {
	"coord": {
	  "lat": 52.4048,
	  "lon": 20.939301
	},
	"country": "PL",
	"id": 7532290,
	"name": "Legionowo"
  },
  {
	"coord": {
	  "lat": 52.401489,
	  "lon": 20.92664
	},
	"country": "PL",
	"id": 766555,
	"name": "Legionowo"
  },
  {
	"coord": {
	  "lat": 50.333328,
	  "lon": 19.133329
	},
	"country": "PL",
	"id": 3100871,
	"name": "Dąbie Dolne"
  },
  {
	"coord": {
	  "lat": 50.87051,
	  "lon": 16.430429
	},
	"country": "PL",
	"id": 7530846,
	"name": "Powiat świdnicki"
  },
  {
	"coord": {
	  "lat": 50.840599,
	  "lon": 16.4925
	},
	"country": "PL",
	"id": 7532248,
	"name": "Świdnica"
  },
  {
	"coord": {
	  "lat": 50.843781,
	  "lon": 16.48859
	},
	"country": "PL",
	"id": 3084093,
	"name": "Swidnica"
  },
  {
	"coord": {
	  "lat": 52.764629,
	  "lon": 18.296709
	},
	"country": "PL",
	"id": 7530910,
	"name": "Powiat inowrocławski"
  },
  {
	"coord": {
	  "lat": 52.781601,
	  "lon": 18.249901
	},
	"country": "PL",
	"id": 7532534,
	"name": "Inowrocław"
  },
  {
	"coord": {
	  "lat": 52.798859,
	  "lon": 18.26388
	},
	"country": "PL",
	"id": 3097872,
	"name": "Inowroclaw"
  },
  {
	"coord": {
	  "lat": 50.875999,
	  "lon": 18.4132
	},
	"country": "PL",
	"id": 7533248,
	"name": "Olesno"
  },
  {
	"coord": {
	  "lat": 50.87698,
	  "lon": 18.42094
	},
	"country": "PL",
	"id": 3090158,
	"name": "Olesno"
  },
  {
	"coord": {
	  "lat": 53.91082,
	  "lon": 18.68943
	},
	"country": "PL",
	"id": 3086892,
	"name": "Rożental"
  },
  {
	"coord": {
	  "lat": 51.441719,
	  "lon": 16.243179
	},
	"country": "PL",
	"id": 7530831,
	"name": "Powiat lubiński"
  },
  {
	"coord": {
	  "lat": 51.399399,
	  "lon": 16.193899
	},
	"country": "PL",
	"id": 7532505,
	"name": "Lubin"
  },
  {
	"coord": {
	  "lat": 51.40089,
	  "lon": 16.20149
	},
	"country": "PL",
	"id": 3092931,
	"name": "Lubin"
  },
  {
	"coord": {
	  "lat": 52.000278,
	  "lon": 20.432751
	},
	"country": "PL",
	"id": 7530760,
	"name": "Powiat żyrardowski"
  },
  {
	"coord": {
	  "lat": 51.9771,
	  "lon": 20.532101
	},
	"country": "PL",
	"id": 7533251,
	"name": "Mszczonów"
  },
  {
	"coord": {
	  "lat": 51.974152,
	  "lon": 20.52083
	},
	"country": "PL",
	"id": 764269,
	"name": "Mszczonow"
  },
  {
	"coord": {
	  "lat": 51.366501,
	  "lon": 19.374479
	},
	"country": "PL",
	"id": 3103313,
	"name": "Binków"
  },
  {
	"coord": {
	  "lat": 50.24007,
	  "lon": 19.14831
	},
	"country": "PL",
	"id": 3091543,
	"name": "Modrzejów"
  },
  {
	"coord": {
	  "lat": 50.907471,
	  "lon": 14.95634
	},
	"country": "PL",
	"id": 3103096,
	"name": "Bogatynia"
  },
  {
	"coord": {
	  "lat": 50.045231,
	  "lon": 18.700621
	},
	"country": "PL",
	"id": 3080004,
	"name": "Zory"
  },
  {
	"coord": {
	  "lat": 53.555092,
	  "lon": 22.48995
	},
	"country": "PL",
	"id": 7531062,
	"name": "Powiat grajewski"
  },
  {
	"coord": {
	  "lat": 53.640099,
	  "lon": 22.450899
	},
	"country": "PL",
	"id": 7532934,
	"name": "Grajewo"
  },
  {
	"coord": {
	  "lat": 53.647282,
	  "lon": 22.45537
	},
	"country": "PL",
	"id": 771506,
	"name": "Grajewo"
  },
  {
	"coord": {
	  "lat": 50.561981,
	  "lon": 22.70785
	},
	"country": "PL",
	"id": 771381,
	"name": "Gromada"
  },
  {
	"coord": {
	  "lat": 53.737659,
	  "lon": 16.589569
	},
	"country": "PL",
	"id": 7530756,
	"name": "Powiat szczecinecki"
  },
  {
	"coord": {
	  "lat": 53.702702,
	  "lon": 16.694599
	},
	"country": "PL",
	"id": 7531675,
	"name": "Szczecinek"
  },
  {
	"coord": {
	  "lat": 53.707909,
	  "lon": 16.699369
	},
	"country": "PL",
	"id": 3083826,
	"name": "Szczecinek"
  },
  {
	"coord": {
	  "lat": 49.561798,
	  "lon": 20.635099
	},
	"country": "PL",
	"id": 7533105,
	"name": "Stary Sącz"
  },
  {
	"coord": {
	  "lat": 49.563641,
	  "lon": 20.63496
	},
	"country": "PL",
	"id": 758282,
	"name": "Stary Sacz"
  },
  {
	"coord": {
	  "lat": 53.256001,
	  "lon": 14.4967
	},
	"country": "PL",
	"id": 7533423,
	"name": "Gryfino"
  },
  {
	"coord": {
	  "lat": 53.25243,
	  "lon": 14.48831
	},
	"country": "PL",
	"id": 3098200,
	"name": "Gryfino"
  },
  {
	"coord": {
	  "lat": 50.386501,
	  "lon": 19.121901
	},
	"country": "PL",
	"id": 7531814,
	"name": "Psary"
  },
  {
	"coord": {
	  "lat": 50.379639,
	  "lon": 19.11548
	},
	"country": "PL",
	"id": 3087743,
	"name": "Psary"
  },
  {
	"coord": {
	  "lat": 50.460541,
	  "lon": 17.335461
	},
	"country": "PL",
	"id": 7530734,
	"name": "Powiat nyski"
  },
  {
	"coord": {
	  "lat": 50.466099,
	  "lon": 17.003799
	},
	"country": "PL",
	"id": 7533409,
	"name": "Paczków"
  },
  {
	"coord": {
	  "lat": 50.463951,
	  "lon": 17.00658
	},
	"country": "PL",
	"id": 3089566,
	"name": "Paczkow"
  },
  {
	"coord": {
	  "lat": 51.8368,
	  "lon": 17.03471
	},
	"country": "PL",
	"id": 7531073,
	"name": "Powiat gostyński"
  },
  {
	"coord": {
	  "lat": 51.882702,
	  "lon": 17.0091
	},
	"country": "PL",
	"id": 7533239,
	"name": "Gostyń"
  },
  {
	"coord": {
	  "lat": 51.882469,
	  "lon": 17.01226
	},
	"country": "PL",
	"id": 3098625,
	"name": "Gostyn"
  },
  {
	"coord": {
	  "lat": 54.422112,
	  "lon": 17.15917
	},
	"country": "PL",
	"id": 7531069,
	"name": "Powiat słupski"
  },
  {
	"coord": {
	  "lat": 54.573181,
	  "lon": 16.86018
	},
	"country": "PL",
	"id": 7531163,
	"name": "Ustka"
  },
  {
	"coord": {
	  "lat": 54.580479,
	  "lon": 16.86194
	},
	"country": "PL",
	"id": 3082756,
	"name": "Ustka"
  },
  {
	"coord": {
	  "lat": 50.4702,
	  "lon": 20.716499
	},
	"country": "PL",
	"id": 7533360,
	"name": "Busko-Zdrój"
  },
  {
	"coord": {
	  "lat": 50.470779,
	  "lon": 20.71884
	},
	"country": "PL",
	"id": 774747,
	"name": "Busko-Zdroj"
  },
  {
	"coord": {
	  "lat": 54.018082,
	  "lon": 21.821911
	},
	"country": "PL",
	"id": 7530799,
	"name": "Powiat giżycki"
  },
  {
	"coord": {
	  "lat": 54.025101,
	  "lon": 21.757299
	},
	"country": "PL",
	"id": 7531922,
	"name": "Giżycko"
  },
  {
	"coord": {
	  "lat": 54.038109,
	  "lon": 21.76441
	},
	"country": "PL",
	"id": 772195,
	"name": "Gizycko"
  },
  {
	"coord": {
	  "lat": 52.6982,
	  "lon": 21.880501
	},
	"country": "PL",
	"id": 7533299,
	"name": "Brok"
  },
  {
	"coord": {
	  "lat": 52.699478,
	  "lon": 21.85704
	},
	"country": "PL",
	"id": 775304,
	"name": "Brok"
  },
  {
	"coord": {
	  "lat": 51.958061,
	  "lon": 20.169121
	},
	"country": "PL",
	"id": 7530973,
	"name": "Skierniewice"
  },
  {
	"coord": {
	  "lat": 51.958061,
	  "lon": 20.169121
	},
	"country": "PL",
	"id": 7531180,
	"name": "Skierniewice"
  },
  {
	"coord": {
	  "lat": 51.954849,
	  "lon": 20.158369
	},
	"country": "PL",
	"id": 759123,
	"name": "Skierniewice"
  },
  {
	"coord": {
	  "lat": 50.69508,
	  "lon": 21.608999
	},
	"country": "PL",
	"id": 7530977,
	"name": "Powiat sandomierski"
  },
  {
	"coord": {
	  "lat": 50.679501,
	  "lon": 21.747
	},
	"country": "PL",
	"id": 7532761,
	"name": "Sandomierz"
  },
  {
	"coord": {
	  "lat": 50.682652,
	  "lon": 21.74898
	},
	"country": "PL",
	"id": 759603,
	"name": "Sandomierz"
  },
  {
	"coord": {
	  "lat": 50.400002,
	  "lon": 18.633329
	},
	"country": "PL",
	"id": 3087628,
	"name": "Pyskowice"
  },
  {
	"coord": {
	  "lat": 50.960621,
	  "lon": 17.306009
	},
	"country": "PL",
	"id": 7530835,
	"name": "Powiat oławski"
  },
  {
	"coord": {
	  "lat": 50.957401,
	  "lon": 17.294201
	},
	"country": "PL",
	"id": 7532481,
	"name": "Oława"
  },
  {
	"coord": {
	  "lat": 50.946602,
	  "lon": 17.292601
	},
	"country": "PL",
	"id": 3090205,
	"name": "Olawa"
  },
  {
	"coord": {
	  "lat": 51.069721,
	  "lon": 21.06925
	},
	"country": "PL",
	"id": 774843,
	"name": "Bugaj"
  },
  {
	"coord": {
	  "lat": 53.481281,
	  "lon": 18.411631
	},
	"country": "PL",
	"id": 7530917,
	"name": "Powiat świecki"
  },
  {
	"coord": {
	  "lat": 53.403099,
	  "lon": 18.418699
	},
	"country": "PL",
	"id": 7533276,
	"name": "Świecie"
  },
  {
	"coord": {
	  "lat": 53.409531,
	  "lon": 18.44742
	},
	"country": "PL",
	"id": 3084074,
	"name": "Swiecie"
  },
  {
	"coord": {
	  "lat": 52.266891,
	  "lon": 20.213381
	},
	"country": "PL",
	"id": 7530759,
	"name": "Powiat sochaczewski"
  },
  {
	"coord": {
	  "lat": 52.236198,
	  "lon": 20.244499
	},
	"country": "PL",
	"id": 7532270,
	"name": "Sochaczew"
  },
  {
	"coord": {
	  "lat": 52.229439,
	  "lon": 20.23838
	},
	"country": "PL",
	"id": 758682,
	"name": "Sochaczew"
  },
  {
	"coord": {
	  "lat": 51.064629,
	  "lon": 19.630381
	},
	"country": "PL",
	"id": 7531008,
	"name": "Powiat radomszczański"
  },
  {
	"coord": {
	  "lat": 51.071098,
	  "lon": 19.442699
	},
	"country": "PL",
	"id": 7532572,
	"name": "Radomsko"
  },
  {
	"coord": {
	  "lat": 51.067131,
	  "lon": 19.444771
	},
	"country": "PL",
	"id": 3087497,
	"name": "Radomsko"
  },
  {
	"coord": {
	  "lat": 53.797421,
	  "lon": 23.14275
	},
	"country": "PL",
	"id": 7530841,
	"name": "Powiat augustowski"
  },
  {
	"coord": {
	  "lat": 53.83971,
	  "lon": 22.9492
	},
	"country": "PL",
	"id": 7531271,
	"name": "Augustów"
  },
  {
	"coord": {
	  "lat": 53.843208,
	  "lon": 22.97979
	},
	"country": "PL",
	"id": 776597,
	"name": "Augustow"
  },
  {
	"coord": {
	  "lat": 50.789299,
	  "lon": 17.484989
	},
	"country": "PL",
	"id": 7530732,
	"name": "Powiat brzeski"
  },
  {
	"coord": {
	  "lat": 50.8647,
	  "lon": 17.491899
	},
	"country": "PL",
	"id": 7531919,
	"name": "Skarbimierz"
  },
  {
	"coord": {
	  "lat": 50.842701,
	  "lon": 17.45813
	},
	"country": "PL",
	"id": 3080105,
	"name": "Żłobizna"
  },
  {
	"coord": {
	  "lat": 52.415409,
	  "lon": 16.925249
	},
	"country": "PL",
	"id": 7530994,
	"name": "Powiat poznański"
  },
  {
	"coord": {
	  "lat": 52.409401,
	  "lon": 17.0665
	},
	"country": "PL",
	"id": 7533462,
	"name": "Swarzędz"
  },
  {
	"coord": {
	  "lat": 52.412891,
	  "lon": 17.08503
	},
	"country": "PL",
	"id": 3084130,
	"name": "Swarzedz"
  },
  {
	"coord": {
	  "lat": 51.842178,
	  "lon": 15.72698
	},
	"country": "PL",
	"id": 7530855,
	"name": "Powiat nowosolski"
  },
  {
	"coord": {
	  "lat": 51.803398,
	  "lon": 15.7118
	},
	"country": "PL",
	"id": 7532629,
	"name": "Nowa Sól"
  },
  {
	"coord": {
	  "lat": 51.803329,
	  "lon": 15.71702
	},
	"country": "PL",
	"id": 3090764,
	"name": "Nowa Sol"
  },
  {
	"coord": {
	  "lat": 50.55669,
	  "lon": 16.87221
	},
	"country": "PL",
	"id": 7530851,
	"name": "Powiat ząbkowicki"
  },
  {
	"coord": {
	  "lat": 50.587299,
	  "lon": 16.8228
	},
	"country": "PL",
	"id": 7533200,
	"name": "Ząbkowice Śląskie"
  },
  {
	"coord": {
	  "lat": 50.578491,
	  "lon": 16.790371
	},
	"country": "PL",
	"id": 3083469,
	"name": "Tarnów"
  },
  {
	"coord": {
	  "lat": 51.47187,
	  "lon": 22.64031
	},
	"country": "PL",
	"id": 774534,
	"name": "Chlewiska"
  },
  {
	"coord": {
	  "lat": 52.016338,
	  "lon": 20.983191
	},
	"country": "PL",
	"id": 7530876,
	"name": "Powiat piaseczyński"
  },
  {
	"coord": {
	  "lat": 52.073399,
	  "lon": 21.017
	},
	"country": "PL",
	"id": 7533319,
	"name": "Piaseczno"
  },
  {
	"coord": {
	  "lat": 52.081402,
	  "lon": 21.02397
	},
	"country": "PL",
	"id": 762423,
	"name": "Piaseczno"
  },
  {
	"coord": {
	  "lat": 52.658699,
	  "lon": 17.9541
	},
	"country": "PL",
	"id": 7533235,
	"name": "Mogilno"
  },
  {
	"coord": {
	  "lat": 52.658058,
	  "lon": 17.95578
	},
	"country": "PL",
	"id": 3091523,
	"name": "Mogilno"
  },
  {
	"coord": {
	  "lat": 50.505909,
	  "lon": 19.41342
	},
	"country": "PL",
	"id": 3080525,
	"name": "Zawiercie Nowe"
  },
  {
	"coord": {
	  "lat": 53.616791,
	  "lon": 16.464479
	},
	"country": "PL",
	"id": 3089012,
	"name": "Pile"
  },
  {
	"coord": {
	  "lat": 52.70845,
	  "lon": 23.55719
	},
	"country": "PL",
	"id": 7531063,
	"name": "Powiat hajnowski"
  },
  {
	"coord": {
	  "lat": 52.723598,
	  "lon": 23.5665
	},
	"country": "PL",
	"id": 7532457,
	"name": "Hajnówka"
  },
  {
	"coord": {
	  "lat": 52.743279,
	  "lon": 23.581221
	},
	"country": "PL",
	"id": 771158,
	"name": "Hajnowka"
  },
  {
	"coord": {
	  "lat": 53.44743,
	  "lon": 16.02132
	},
	"country": "PL",
	"id": 7530861,
	"name": "Powiat drawski"
  },
  {
	"coord": {
	  "lat": 53.525101,
	  "lon": 16.0151
	},
	"country": "PL",
	"id": 7533023,
	"name": "Złocieniec"
  },
  {
	"coord": {
	  "lat": 53.53286,
	  "lon": 16.01132
	},
	"country": "PL",
	"id": 3080102,
	"name": "Zlocieniec"
  },
  {
	"coord": {
	  "lat": 52.12701,
	  "lon": 20.69309
	},
	"country": "PL",
	"id": 6695600,
	"name": "Turczynek"
  },
  {
	"coord": {
	  "lat": 50.135651,
	  "lon": 19.404341
	},
	"country": "PL",
	"id": 6690151,
	"name": "Powiat chrzanowski"
  },
  {
	"coord": {
	  "lat": 50.1292,
	  "lon": 19.359501
	},
	"country": "PL",
	"id": 7533327,
	"name": "Chrzanów"
  },
  {
	"coord": {
	  "lat": 50.13546,
	  "lon": 19.402031
	},
	"country": "PL",
	"id": 3101547,
	"name": "Chrzanow"
  },
  {
	"coord": {
	  "lat": 53.269821,
	  "lon": 19.422791
	},
	"country": "PL",
	"id": 7530905,
	"name": "Powiat brodnicki"
  },
  {
	"coord": {
	  "lat": 53.2579,
	  "lon": 19.406401
	},
	"country": "PL",
	"id": 7532702,
	"name": "Brodnica"
  },
  {
	"coord": {
	  "lat": 53.25967,
	  "lon": 19.39653
	},
	"country": "PL",
	"id": 3102627,
	"name": "Brodnica"
  },
  {
	"coord": {
	  "lat": 51.90115,
	  "lon": 21.64802
	},
	"country": "PL",
	"id": 766376,
	"name": "Leszczyny"
  },
  {
	"coord": {
	  "lat": 50.56287,
	  "lon": 21.7363
	},
	"country": "PL",
	"id": 7531058,
	"name": "Powiat tarnobrzeski"
  },
  {
	"coord": {
	  "lat": 50.4198,
	  "lon": 21.754
	},
	"country": "PL",
	"id": 7533295,
	"name": "Nowa Dęba"
  },
  {
	"coord": {
	  "lat": 50.429741,
	  "lon": 21.75078
	},
	"country": "PL",
	"id": 763783,
	"name": "Nowa Deba"
  },
  {
	"coord": {
	  "lat": 53.729061,
	  "lon": 19.9144
	},
	"country": "PL",
	"id": 7530753,
	"name": "Powiat ostródzki"
  },
  {
	"coord": {
	  "lat": 53.5308,
	  "lon": 20.1311
	},
	"country": "PL",
	"id": 7532473,
	"name": "Grunwald"
  },
  {
	"coord": {
	  "lat": 53.484219,
	  "lon": 20.09425
	},
	"country": "PL",
	"id": 771336,
	"name": "Grunwald"
  },
  {
	"coord": {
	  "lat": 51.620399,
	  "lon": 18.95085
	},
	"country": "PL",
	"id": 7531027,
	"name": "Powiat zduńskowolski"
  },
  {
	"coord": {
	  "lat": 51.5952,
	  "lon": 18.964701
	},
	"country": "PL",
	"id": 7531684,
	"name": "Zduńska Wola"
  },
  {
	"coord": {
	  "lat": 51.599152,
	  "lon": 18.939739
	},
	"country": "PL",
	"id": 3080414,
	"name": "Zdunska Wola"
  },
  {
	"coord": {
	  "lat": 51.558842,
	  "lon": 19.03824
	},
	"country": "PL",
	"id": 7531016,
	"name": "Powiat łaski"
  },
  {
	"coord": {
	  "lat": 51.601799,
	  "lon": 19.158199
	},
	"country": "PL",
	"id": 7533524,
	"name": "Łask"
  },
  {
	"coord": {
	  "lat": 51.590561,
	  "lon": 19.13278
	},
	"country": "PL",
	"id": 3093902,
	"name": "Lask"
  },
  {
	"coord": {
	  "lat": 51.232609,
	  "lon": 18.630329
	},
	"country": "PL",
	"id": 7531025,
	"name": "Powiat wieluński"
  },
  {
	"coord": {
	  "lat": 51.2253,
	  "lon": 18.569
	},
	"country": "PL",
	"id": 7533434,
	"name": "Wieluń"
  },
  {
	"coord": {
	  "lat": 51.22097,
	  "lon": 18.569639
	},
	"country": "PL",
	"id": 3082197,
	"name": "Wielun"
  },
  {
	"coord": {
	  "lat": 53.942928,
	  "lon": 15.19082
	},
	"country": "PL",
	"id": 7530795,
	"name": "Powiat gryficki"
  },
  {
	"coord": {
	  "lat": 54.06147,
	  "lon": 15.26475
	},
	"country": "PL",
	"id": 3083145,
	"name": "Trzebiatow"
  },
  {
	"coord": {
	  "lat": 50.894859,
	  "lon": 21.377529
	},
	"country": "PL",
	"id": 764717,
	"name": "Miłków"
  },
  {
	"coord": {
	  "lat": 52.143242,
	  "lon": 21.328529
	},
	"country": "PL",
	"id": 760087,
	"name": "Rudka"
  },
  {
	"coord": {
	  "lat": 54.01939,
	  "lon": 18.004
	},
	"country": "PL",
	"id": 7530785,
	"name": "Powiat kościerski"
  },
  {
	"coord": {
	  "lat": 54.120701,
	  "lon": 17.9846
	},
	"country": "PL",
	"id": 7532759,
	"name": "Kościerzyna"
  },
  {
	"coord": {
	  "lat": 54.122261,
	  "lon": 17.98119
	},
	"country": "PL",
	"id": 3095126,
	"name": "Koscierzyna"
  },
  {
	"coord": {
	  "lat": 50.673672,
	  "lon": 18.793779
	},
	"country": "PL",
	"id": 7531050,
	"name": "Powiat lubliniecki"
  },
  {
	"coord": {
	  "lat": 50.6432,
	  "lon": 18.708599
	},
	"country": "PL",
	"id": 7531778,
	"name": "Lubliniec"
  },
  {
	"coord": {
	  "lat": 50.668968,
	  "lon": 18.684401
	},
	"country": "PL",
	"id": 3092906,
	"name": "Lubliniec"
  },
  {
	"coord": {
	  "lat": 52.026241,
	  "lon": 18.50532
	},
	"country": "PL",
	"id": 3080422,
	"name": "Zdrojki"
  },
  {
	"coord": {
	  "lat": 50.43195,
	  "lon": 19.43293
	},
	"country": "PL",
	"id": 3087027,
	"name": "Rokitno Szlacheckie"
  },
  {
	"coord": {
	  "lat": 49.993229,
	  "lon": 18.425039
	},
	"country": "PL",
	"id": 7530854,
	"name": "Powiat wodzisławski"
  },
  {
	"coord": {
	  "lat": 50.0023,
	  "lon": 18.439899
	},
	"country": "PL",
	"id": 7531744,
	"name": "Wodzisław Śląski"
  },
  {
	"coord": {
	  "lat": 50.003769,
	  "lon": 18.47205
	},
	"country": "PL",
	"id": 3081677,
	"name": "Wodzislaw Slaski"
  },
  {
	"coord": {
	  "lat": 52.638939,
	  "lon": 20.347099
	},
	"country": "PL",
	"id": 7530884,
	"name": "Powiat płoński"
  },
  {
	"coord": {
	  "lat": 52.626469,
	  "lon": 20.36301
	},
	"country": "PL",
	"id": 7531402,
	"name": "Płońsk"
  },
  {
	"coord": {
	  "lat": 52.623482,
	  "lon": 20.375521
	},
	"country": "PL",
	"id": 762021,
	"name": "Plonsk"
  },
  {
	"coord": {
	  "lat": 52.976089,
	  "lon": 19.90349
	},
	"country": "PL",
	"id": 3096605,
	"name": "Karniszyn"
  },
  {
	"coord": {
	  "lat": 52.738628,
	  "lon": 15.08508
	},
	"country": "PL",
	"id": 7530978,
	"name": "Powiat gorzowski"
  },
  {
	"coord": {
	  "lat": 52.61628,
	  "lon": 14.64042
	},
	"country": "PL",
	"id": 7531390,
	"name": "Kostrzyn nad Odrą"
  },
  {
	"coord": {
	  "lat": 52.587132,
	  "lon": 14.64953
	},
	"country": "PL",
	"id": 3095057,
	"name": "Kostrzyn nad Odra"
  },
  {
	"coord": {
	  "lat": 52.651371,
	  "lon": 21.44537
	},
	"country": "PL",
	"id": 7530752,
	"name": "Powiat wyszkowski"
  },
  {
	"coord": {
	  "lat": 52.592201,
	  "lon": 21.4471
	},
	"country": "PL",
	"id": 7533316,
	"name": "Wyszków"
  },
  {
	"coord": {
	  "lat": 52.592781,
	  "lon": 21.458401
	},
	"country": "PL",
	"id": 754454,
	"name": "Wyszkow"
  },
  {
	"coord": {
	  "lat": 52.173569,
	  "lon": 20.937321
	},
	"country": "PL",
	"id": 753911,
	"name": "Załuski"
  },
  {
	"coord": {
	  "lat": 50.354031,
	  "lon": 22.32004
	},
	"country": "PL",
	"id": 761471,
	"name": "Poręba"
  },
  {
	"coord": {
	  "lat": 51.596668,
	  "lon": 20.06638
	},
	"country": "PL",
	"id": 7531024,
	"name": "Powiat tomaszowski"
  },
  {
	"coord": {
	  "lat": 51.520599,
	  "lon": 20.025921
	},
	"country": "PL",
	"id": 7531284,
	"name": "Tomaszów Mazowiecki"
  },
  {
	"coord": {
	  "lat": 51.531311,
	  "lon": 20.008551
	},
	"country": "PL",
	"id": 756867,
	"name": "Tomaszow Mazowiecki"
  },
  {
	"coord": {
	  "lat": 51.371948,
	  "lon": 17.049891
	},
	"country": "PL",
	"id": 7530847,
	"name": "Powiat trzebnicki"
  },